stop_id,stop_code,stop_name,stop_desc,stop_lat,stop_lon,location_type
010001,010001,ΣΤΡΟΦΗ,Επί της ΕΛ.ΒΕΝΙΖΕΛΟΥ,37.998608264,23.664984624,0
010002,010002,ΚΟΛΩΝΕΣ,Επί της ΛΕΩΦ.ΕΛ.ΒΕΝΙΖΕΛΟΥ,37.996719436,23.663182324,0
010003,010003,ΑΓ.ΒΑΡΒΑΡΑ,Επί της ΛΕΩΦ.ΕΛ.ΒΕΝΙΖΕΛΟΥ,37.994694735,23.661152961,0
010004,010004,ΔΗΜΑΡΧΕΙΟ,Επί της ΗΠΕΙΡΟΥ,37.992832656,23.659271010,0
010005,010005,ΚΡΗΤΗΣ,Επί της ΠΑΛΑΙΩΝ ΠΟΛΕΜΙΣΤΩΝ,37.990426162,23.656150363,0
010006,010006,ΚΟΥΝΤΟΥΡΙΩΤΟΥ,Επί της ΠΑΛΑΙΩΝ ΠΟΛΕΜΙΣΤΩΝ,37.988000744,23.655820045,0
010007,010007,ΔΗΜΑΡΧΕΙΟ ΑΓ.ΒΑΡΒΑΡΑΣ,Επί της ΛΕΩΦ.ΕΛ.ΒΕΝΙΖΕΛΟΥ,37.989966779,23.659341206,0
010008,010008,1Η ΑΓ. ΜΑΡΙΝΑΣ,Επί της ΑΓ.ΜΑΡΙΝΑΣ,37.995973523,23.667103600,0
010009,010009,ΛΥΚΟΥΡΓΟΥ,Επί της ΛΕΦ.ΕΛ.ΒΕΝΙΖΕΛΟΥ,37.991445128,23.659425477,0
010010,010010,ΑΒΕΡΩΦ,Επί της ΛΕΩΦ.ΕΛ.ΒΕΝΙΖΕΛΟΥ,37.986628507,23.658126770,0
010011,010011,ΘΕΜΙΣΤΟΚΛΕΟΥΣ,Επί της ΠΑΛ.ΠΑΤΡΩΝ ΓΕΡMΑΝΟΥ,37.988492102,23.654337312,0
010012,010012,ΠΑΛ.ΤΕΡΜΑ,Επί της ΠΑΛ.ΠΑΤΡΩΝ ΓΕΡMΑΝΟΥ,37.990434856,23.652972991,0
010013,010013,ΒΕΝΕΤΙΑ,Επί της ΛΕΩΦ.ΜΕΓ.ΑΛΕΞΑΝΔΡΟΥ,37.987647176,23.658201758,0
010014,010014,ΑΦΕΤΗΡΙΑ 837,Επί της ΠΑΛ.ΠΑΤΡΩΝ ΓΕΡΜΑΝΟΥ,37.993002703,23.652698955,0
010015,010015,ΠΛ.19ς ΜΑIΟΥ,Επί της ΑΠ.ΠΑΥΛΟΥ,37.985065812,23.666332988,0
010016,010016,ΠΑΛ.ΤΕΡΜΑ,Επί της ΠΑΛ.ΠΑΤΡΩΝ ΓΕΡΜΑΝΟΥ,37.990523571,23.652494265,0
010017,010017,ΘΕΜΙΣΤΟΚΛΕΟΥΣ,Επί της ΠΑΛ.ΠΑΤΡΩΝ ΓΕΡΜΑΝΟΥ,37.988707168,23.653914947,0
010018,010018,ΚΝΩΣΟΥ,Επί της ΠΑΛ.ΠΑΤΡΩΝ ΓΕΡΜΑΝΟΥ,37.987466225,23.654877353,0
010019,010019,ΒΟΥΤΕΝΗΣ,Επί της ΣΙΦΝΟΥ,37.986845712,23.661553468,0
010020,010020,ΑΣΤΥΝΟΜΙΑ,Επί της ΧΙΟΥ,37.993314116,23.657469364,0
010021,010021,ΠΕΖΟΔΡΟΜΟ,Επί της ΛΕΩΦ.ΕΛ.ΒΕΝΙΖΕΛΟΥ,37.988154102,23.658962398,0
010022,010022,ΓΟΡΤΥΝΙΑΣ,Επί της ΣΙΦΝΟΥ,37.985753634,23.664166236,0
010023,010023,ΣΤ.ΣΑΡΑΦΗ,Επί της ΣΤΕΦ.ΣΑΡΑΦΗ,37.993081111,23.657925995,0
010024,010024,ΑΓ.ΒΑΡΒΑΡΑ,Επί της ΛΕΩΦ.ΕΛ.ΒΕΝΙΖΕΛΟΥ,37.995373342,23.662072352,0
010025,010025,ΚΟΛΩΝΕΣ,Επί της ΛΕΩΦ.ΕΛ.ΒΕΝΙΖΕΛΟΥ,37.996621210,23.663501672,0
010026,010026,ΣΤΡΟΦΗ ΑΓ.ΒΑΡΒΑΡΑΣ,Επί της ΛΕΩΦ.ΕΛ.ΒΕΝΙΖΕΛΟΥ,37.998013036,23.664850658,0
010027,010027,28ης ΟΚΤΩΒΡΙΟΥ,Επί της 28ης ΟΚΤΩΒΡΙΟΥ,37.995907608,23.662946864,0
010028,010028,ΣΤΡΟΦΗ ΑΓ.ΒΑΡΒΑΡΑΣ,Επί της ΙΕΡΑΣ ΟΔΟΥ,37.998932656,23.664960369,0
010029,010029,ΙΚΑ,Επί της ΛΕΩΦ.ΕΛ.ΒΕΝΙΖΕΛΟΥ,37.992518859,23.659841892,0
010030,010030,ΑΓ.ΕΛΕΟΥΣΑ,Επί της ΛΕΩΦ.ΕΛ.ΒΕΝΙΖΕΛΟΥ,37.990714604,23.659258030,0
010031,010031,28ης ΟΚΤΩΒΡΙΟΥ,Επί της 28ης ΟΚΤΩΒΡΙΟΥ,37.995610613,23.663096282,0
010032,010032,ΒΕΝΕΤΙΑ,Επί της ΛΕΩΦ.ΕΛ.ΒΕΝΙΖΕΛΟΥ,37.986041621,23.657765089,0
010036,010036,ΙΚΑ,Επί της ΛΕΩΦ.ΕΛ.ΒΕΝΙΖΕΛΟΥ,37.992772696,23.660353209,0
010037,010037,5η ΚΟΡΥΔΑΛΛΟΥ,Επί της ΛΕΩΦ.ΜΕΓ.ΑΛΕΞΑΝΔΡΟΥ,37.989474619,23.663705138,0
010040,010040,6η ΚΟΡΥΔΑΛΛΟΥ,Επί της ΛΕΩΦ.ΜΕΓ.ΑΛΕΞΑΝΔΡΟΥ,37.989092268,23.662374478,0
010041,010041,7η ΚΟΡΥΔΑΛΛΟΥ,Επί της ΛΕΩΦ.ΜΕΓ.ΑΛΕΞΑΝΔΡΟΥ,37.988419261,23.660270787,0
010042,010042,6η ΚΟΡΥΔΑΛΛΟΥ,Επί της ΛΕΩΦ.ΜΕΓ.ΑΛΕΞΑΝΔΡΟΥ,37.988921875,23.662671348,0
010043,010043,5η ΚΟΡΥΔΑΛΛΟΥ,Επί της ΛΕΩΦ.ΜΕΓ.ΑΛΕΞΑΝΔΡΟΥ,37.989331034,23.663922168,0
010044,010044,ΜΑΡΙΝΟΥ ΑΝΤΥΠΑ,Επί της ΜΑΡ.ΑΝΤΥΠΑ,37.987026701,23.664957577,0
010045,010045,ΠΛ.ΜΑΚΡΥΓΙΑΝΝΗ,Επί της ΗΡΑΚΛΕΙΟΥ,37.985645053,23.660875731,0
010046,010046,ΠΛ.ΜΑΚΡΥΓΙΑΝΝΗ,Επί της ΗΡΑΚΛΕΙΟΥ,37.985383848,23.660933871,0
010047,010047,ΜΑΡΙΝΟΥ ΑΝΤΥΠΑ,Επί της ΜΑΡ.ΑΝΤΥΠΑ,37.986765235,23.664924603,0
010048,010048,ΑΠΟΣΤΟΛΟΥ ΠΑΥΛΟΥ,Επί της ΚΟΡΥΔΑΛΛΟΥ,37.987670521,23.666332580,0
010049,010049,ΣΙΦΝΟΥ,Επί της ΜΑΡ.ΑΝΤΥΠΑ,37.986291239,23.663059184,0
010053,010053,ΑΠΟΣΤΟΛΟΥ ΠΑΥΛΟΥ,Επί της ΚΟΡΥΔΑΛΛΟΥ,37.987482029,23.666606742,0
010054,010054,ΣΤΕΦ.ΣΑΡΑΦΗ,Επί της ΣΤΕΦ.ΣΑΡΑΦΗ,37.993135154,23.657914355,0
010056,010056,ΓΕΦΥΡΑ,Επί της ΣΤΕΦ.ΣΑΡΑΦΗ,37.990258841,23.657494958,0
010057,010057,ΚΥΠΡΟΥ,Επί της ΚΥΠΡΟΥ,37.994523839,23.658158462,0
010058,010058,ΑΣΤΥΝΟΜΙΑ,Επί της ΣΤΕΦ.ΣΑΡΑΦΗ,37.991331818,23.657649407,0
010060,010060,ΑΣΤΟΡΙΑ,Επί της ΠΑΛ.ΠΑΤΡΩΝ ΓΕΡΜΑΝΟΥ,37.987529815,23.655047872,0
010062,010062,ΛΥΚΟΥΡΓΟΥ,Επί της ΛΥΚΟΥΡΓΟΥ,37.991828312,23.657920424,0
010065,010065,ΒΕΝΕΤΙΑ,Επί της ΛΕΩΦ.ΜΕΓ.ΑΛΕΞΑΝΔΡΟΥ,37.987521328,23.658316220,0
010066,010066,ΔΙΑΚΟΥ,Επί της ΠΑΠΑΔΙΑΜΑΝΤΗ,37.992059447,23.650699020,0
010067,010067,ΧΙΟΥ,Επί της ΧΙΟΥ,37.993672498,23.653663844,0
010069,010069,ΚΟΥΝΤΟΥΡΙΩΤΗ,Επί της ΣΤΕΦ.ΣΑΡΑΦΗ,37.987382360,23.657018654,0
010070,010070,ΠΡΟΦ.ΗΛΙΑΣ,Επί της ΠΑΠΑΔΙΑΜΑΝΤΗ,37.993541210,23.651933369,0
010071,010071,ΧΙΟΥ,Επί της ΟΔΥΣΣΕΩΣ,37.992761451,23.656481122,0
010072,010072,ΠΡΟΦ.ΗΛΙΑ,Επί της ΠΑΛ.ΠΑΤΡΩΝ ΓΕΡΜΑΝΟΥ,37.993200983,23.652698020,0
010074,010074,ΣΩΚΡΑΤΟΥΣ,Επί της ΔΕΛΗΓΙΑΝΝΗ,37.994191540,23.655472233,0
010075,010075,ΑΘ.ΔΙΑΚΟΥ,Επί της ΖΩΟΔΟΧΟΥ ΠΗΓΗΣ,37.992080040,23.651564452,0
010078,010078,ΚΕΝΤΡΟ ΝΕΟΤΗΤΑΣ,Επί της ΧΑΝΙΩΝ,37.985764808,23.658654605,0
010079,010079,7η ΚΟΡΥΔΑΛΛΟΥ,Επί της ΧΑΝΙΩΝ,37.987840801,23.659704060,0
010080,010080,ΑΦΕΤΗΡΙΑ,Επί της ΝΕΣΤΟΥ,37.992895827,23.665580038,0
010081,010081,ΚΡΗΤΗ,Επί της ΚΡΗΤΗΣ,37.990665441,23.657846106,0
010084,010084,ΑΦΕΤΗΡΙΑ 830,Επί της ΝΕΣΤΟΥ,37.992607938,23.665763563,0
010085,010085,ΣΤ.ΑΓ.ΜΑΡΙΝΑ,Επί της ΙΕΡΑΣ ΟΔΟΥ,37.997155863,23.667690501,0
010086,010086,ΑΦΕΤΗΡΙΑ,Επί της ΣΙΦΝΟΥ,37.986100666,23.662604551,0
010087,010087,ΚΥΠΡΟΥ,Επί της ΧΙΟΥ,37.993139847,23.659531529,0
010100,010100,ΣΤ.ΑΓ.ΜΑΡΙΝΑ,Επί της ΙΕΡΑ ΟΔΟΣ,37.997254101,23.667371156,0
020004,020004,ΤΕΡΜΑ(ΕΝ.ΕΡΓ.ΠΙΤΣΟΥ),Επί της ΑΝΩΝΥΜΟΣ(ΕΜΠΡ.ΕΡΓ.ΠΙΤΣΟΥ),37.973297433,23.670382622,0
020005,020005,ΚΑΠΗ,Επί της ΛΕΩΦ.ΦΛΕΜΙΝΓΚ,37.954695029,23.670442997,0
020006,020006,ΜΕΡΚΟΥΡΗ,Επί της ΛΕΩΦ.ΚΗΦΙΣΟΥ,37.970290959,23.674995675,0
020007,020007,ΡΕΝΤΗΣ,Επί της ΕΝΤ.ΔΗΜΟΥ ΑΓ.ΙΩΑΝ.ΡΕΝΤΗ,37.962627047,23.667481867,0
020008,020008,ΓΕΦΥΡΑ ΠΕΤΡΟΥ ΡΑΛΛΗ,Επί της ΛΕΩΦ.ΚΗΦΙΣΟΥ,37.975647015,23.675871554,0
020009,020009,ΜΕΛΙΣΣΑ,Επί της ΘΗΒΩΝ,37.965860524,23.660420288,0
020010,020010,ΟΑΕΔ,Επί της ΛΕΩΦ.ΚΗΦΙΣΟΥ,37.973907586,23.675890589,0
020011,020011,1η ΛΑΧΑΝΑΓΟΡΑ,Επί της ΛΕΩΦ.ΓΕΩΡΓ.ΠΑΠΑΝΔΡΕΟΥ,37.958688623,23.680567749,0
020013,020013,ΣΙΔΕΡΑ,Επί της ΑΓ.ΙΩΑΝΝΟΥ ΡΕΝΤΗ,37.962853815,23.671203421,0
020014,020014,ΠΟΛΥΚΑΤΟΙΚΙΕΣ,Επί της ΑΓ.ΙΩΑΝΝΟΥ ΡΕΝΤΗ,37.961316637,23.669423020,0
020015,020015,Π.ΤΑΧΥΔΡΟΜΕΙΟ,Επί της ΑΓ.ΙΩΑΝΝΟΥ ΡΕΝΤΗ,37.959693155,23.669009106,0
020016,020016,ΔΕΛΗΓΙΑΝΝΗ,Επί της ΑΓ.ΙΩΑΝΝΟΥ ΡΕΝΤΗ,37.957754000,23.668516945,0
020017,020017,ΑΠΟΛΛΩΝ,Επί της ΑΓ.ΙΩΑΝΝΟΥ ΡΕΝΤΗ,37.957358948,23.665866441,0
020018,020018,ΦΩΛΙΑ-ΑΓ.ΑΝΝΗΣ,Επί της ΑΓ.ΑΝΝΗΣ,37.975426798,23.684377843,0
020019,020019,ΒΙΑΝΙΛ,Επί της ΑΓ.ΑΝΝΗΣ,37.974007538,23.682801300,0
020020,020020,2η ΑΓ.ΑΝΝΗΣ,Επί της ΑΓ.ΑΝΝΗΣ,37.972298027,23.680554329,0
020021,020021,ΣΧΟΛΕΙΟ-3η ΑΓ.ΑΝΝΗΣ,Επί της ΑΓ.ΑΝΝΗΣ,37.970127826,23.677945148,0
020024,020024,ΦΡΑΓΚΟΥ,Επί της ΑΓ.ΑΝΝΗΣ,37.964600827,23.670671954,0
020025,020025,ΣΙΔΕΡΑ,Επί της ΑΓ.ΙΩΑΝΝΟΥ ΡΕΝΤΗ,37.962406036,23.672229974,0
020026,020026,ΠΕΡΙΚΛΕΟΥΣ,Επί της ΛΕΩΦ.ΦΛΕΜΙΝΓΚ,37.959910038,23.672434588,0
020028,020028,ΣΙΔΕΡΑ,Επί της ΑΓ.ΙΩΑΝΝΟΥ ΡΕΝΤΗ,37.963332795,23.671668034,0
020029,020029,ΦΡΑΓΚΟΥ,Επί της ΑΓ.ΑΝΝΗΣ,37.964249966,23.670901206,0
020032,020032,ΛΕΓΑΚΗ,Επί της ΑΓ.ΑΝΝΗΣ,37.968810216,23.677313347,0
020033,020033,ΣΧΟΛΕΙΟ,Επί της ΑΓ.ΑΝΝΗΣ,37.970464160,23.678991118,0
020034,020034,ΟΛΥΜΠΙΑΚΟΣ,Επί της ΑΓ.ΑΝΝΗΣ,37.973674373,23.682916591,0
020036,020036,ΜΩΡΟΣ,Επί της ΛΕΩΦ.ΚΗΦΙΣΟΥ,37.958485838,23.675628252,0
020037,020037,ΛΑΧΑΝΑΓΟΡΑ,Επί της ΛΕΩΦ.ΚΗΦΙΣΟΥ,37.961237804,23.676731758,0
020038,020038,ΟΣΕ,Επί της ΛΕΩΦ.ΚΗΦΙΣΟΥ,37.963024614,23.677554962,0
020039,020039,ΛΕΓΑΚΗ,Επί της ΣΥΝΔ.ΚΛΑΔΟΥ ΓΕΦ. ΑΓ.ΑΝΝΗΣ,37.969403808,23.676855347,0
020041,020041,ΠΛ.ΡΕΝΤΗ,Επί της ΜΠΙΧΑΚΗ,37.961787827,23.673553249,0
020042,020042,ΣΧΟΛΕΙΟ,Επί της ΠΛ.ΕΛ.ΒΕΝΙΖΕΛΟΥ,37.957814246,23.670713642,0
020043,020043,ΚΑΠΗ,Επί της ΛΕΩΦ.ΦΛΕΜΙΝΓΚ,37.955126845,23.670156497,0
020044,020044,ΛΑΧΑΝΑΓΟΡΑ,Επί της ΠΑΡΑΠΛΕΥΡΟΣ ΛΕΩΦ.ΚΗΦΙΣΟΥ,37.961560730,23.676172535,0
020045,020045,ΓΕΦΥΡΑ,Επί της ΑΘΗΝΩΝ-ΠΕΙΡΑΙΩΣ,37.954711504,23.673117874,0
020046,020046,ΙΟΝ,Επί της ΑΘΗΝΩΝ-ΠΕΙΡΑΙΩΣ,37.953656773,23.669810209,0
020047,020047,ΑΓ.ΠΑΥΛΟΣ,Επί της ΘΗΒΩΝ,37.963059779,23.658088070,0
020048,020048,ΦΟΥΡΝΟΣ,Επί της ΘΗΒΩΝ,37.963927250,23.658858172,0
020049,020049,ΚΕΡΑΝΗΣ,Επί της ΘΗΒΩΝ,37.966638114,23.661281937,0
020050,020050,ΜΕΘΕΝΙΤΗ,Επί της ΘΗΒΩΝ,37.969051638,23.663752775,0
020052,020052,ΠΛΑΣΤΙΓΓΕΣ,Επί της ΘΗΒΩΝ,37.971983964,23.664855173,0
020053,020053,ΥΠΟΥΡΓΕΙΟ,Επί της ΘΗΒΩΝ,37.973934181,23.666064580,0
020054,020054,Γ'ΝΕΚΡΟΤΑΦΕΙΟ,Επί της ΘΗΒΩΝ,37.975831339,23.667638644,0
020055,020055,ΦΙΞ,Επί της Π.ΡΑΛΛΗ,37.976134563,23.669698156,0
020056,020056,ΚΑΝ-ΚΑΝ,Επί της Π.ΡΑΛΛΗ,37.976150285,23.675345582,0
020058,020058,ΕΡΓΑΤΙΚΕΣ ΠΟΛΥΚΑΤΟΙΚΙΕΣ,Επί της Π.ΡΑΛΛΗ,37.976172532,23.683509307,0
020059,020059,ΠΛ.ΡΕΝΤΗ,Επί της ΑΡ.ΚΑΜΠΑΝΗ,37.961122523,23.674148150,0
020060,020060,ΑΦΕΤΗΡΙΑ(ΠΛ.ΡΕΝΤΗ),Επί της ΠΛ.ΑΓ.ΙΩΑΝΝΟΥ ΡΕΝΤΗ,37.961828069,23.675067126,0
020061,020061,1η ΜΑΚΡΥΓΙΑΝΝΗ,Επί της ΜΑΚΡΥΓΙΑΝΝΗ,37.963901136,23.659177050,0
020062,020062,2η ΛΑΧΑΝΑΓΟΡΑ,Επί της ΤΖΩΝ ΚΕΝΝΕΝΤΥ,37.961081756,23.682310482,0
020063,020063,ΑΡΑΠΗ,Επί της ΑΓ.ΑΝΝΗΣ,37.966018757,23.671712997,0
020065,020065,ΠΥΡΟΣΒΕΣΤΙΚΗ,Επί της ΜΑΚΡΥΓΙΑΝΝΗ,37.965585398,23.665055024,0
020067,020067,1η ΜΑΚΡΥΓΙΑΝΝΗ,Επί της ΜΑΚΡΥΓΙΑΝΝΗ,37.963549242,23.659042067,0
020068,020068,2η ΜΑΚΡΥΓΙΑΝΝΗ,Επί της ΜΑΚΡΥΓΙΑΝΝΗ,37.964532533,23.662475574,0
020069,020069,ΠΥΡΟΣΒΕΣΤΙΚΗ,Επί της ΘΕΣΣΑΛΟΝΙΚΗΣ,37.965253092,23.665466372,0
020070,020070,1η ΘΕΣΣΑΛΟΝΙΚΗΣ,Επί της ΘΕΣΣΑΛΟΝΙΚΗΣ,37.965114021,23.667277118,0
020071,020071,ΑΡΑΠΗ,Επί της ΑΓ.ΑΝΝΗΣ,37.966090256,23.671496372,0
020073,020073,ΟΣΕ,Επί της ΠΑΡΑΠΛΕΥΡΟΣ ΛΕΩΦ.ΚΗΦΙΣΟΥ,37.964168392,23.677242586,0
020074,020074,ΚΟΤΖΙΑ,Επί της ΛΕΩΦ.ΚΗΦΙΣΟΥ,37.958420203,23.674706490,0
020075,020075,ΔΗΜΗΤΡΑΤΟΥ,Επί της ΛΕΩΦ.ΚΗΦΙΣΟΥ,37.956922571,23.674166705,0
020076,020076,ΓΕΦΥΡΑ ΑΓ.ΑΝΝΗΣ,Επί της ΛΕΩΦ.ΚΗΦΙΣΟΥ,37.970104956,23.676180550,0
020078,020078,ΜΑΚΡΥΓΙΑΝΝΗ,Επί της ΜΑΚΡΥΓΙΑΝΝΗ,37.967104715,23.670068767,0
020079,020079,ΠΛ.ΕΛ.ΒΕΝΙΖΕΛΟΥ,Επί της ΠΛ.ΕΛ.ΒΕΝΙΖΕΛΟΥ,37.957075899,23.670967367,0
020080,020080,ΠΟΛΥΚΑΤΟΙΚΙΕΣ,Επί της ΛΕΩΦ.ΦΛΕΜΙΝΓΚ,37.959721245,23.672606179,0
020081,020081,ΟΑΕΔ,Επί της Π.ΡΑΛΛΗ,37.976112575,23.678021476,0
020082,020082,2η ΜΑΚΡΥΓΙΑΝΝΗ,Επί της ΜΑΚΡΥΓΙΑΝΝΗ,37.964574522,23.661405259,0
020087,020087,ΠΛ.ΑΓ.ΙΩΑΝΝΟΥ ΡΕΝΤΗ,Επί της ΠΛ.ΑΓ.ΙΩΑΝΝΟΥ ΡΕΝΤΗ,37.962177300,23.674245945,0
020088,020088,ΠΑΛΑΙΟΛΟΓΟΥ,Επί της ΠΑΛΑΙΛΟΓΟΥ,37.962911862,23.675882001,0
020089,020089,ΠΕΤΡΟΥ ΡΑΛΛΗ,Επί της ΡΕΜΑΤΟΣ ΚΑΝΑΠΙΤΣΕΡΙ,37.975215455,23.669770591,0
020090,020090,ΑΜΑΞΟΣΤΑΣΙΟ,Επί της ΧΩΡΟΣ ΑΜΑΞΟΣΤΑΣΙΟΥ,37.971618762,23.669570380,0
020091,020091,ΑΜΑΞΟΣΤΑΣΙΟ,Επί της ΠΑΡΝΑΣΣΟΥ,37.973512302,23.669869306,0
020092,020092,ΠΑΡΝΑΣΣΟΥ,Επί της ΠΑΡΝΑΣΣΟΥ,37.974586647,23.667314067,0
020860,020860,ΘΗΒΩΝ,Επί της ΘΕΣΣΑΛΟΝΙΚΗΣ,37.965847219,23.662059715,0
030001,030001,9η ΜΕΣΟΓΕΙΩΝ,Επί της ΜΕΣΟΓΕΙΩΝ,38.010756860,23.810056372,0
030002,030002,ΤΟΜΠΡΑ,Επί της ΜΕΣΟΓΕΙΩΝ,38.011409892,23.812617789,0
030003,030003,11η ΑΓ.ΠΑΡΑΣΚΕΥΗΣ,Επί της ΜΕΣΟΓΕΙΩΝ,38.011818645,23.814621675,0
030004,030004,12η ΑΓ.ΠΑΡΑΣΚΕΥΗΣ,Επί της ΜΕΣΟΓΕΙΩΝ,38.012453287,23.817012339,0
030005,030005,ΠΛ.ΑΓ.ΠΑΡΑΣΚΕΥΗΣ,Επί της ΜΕΣΟΓΕΙΩΝ,38.013450917,23.821053976,0
030006,030006,ΕΡΤ,Επί της ΜΕΣΟΓΕΙΩΝ,38.013720129,23.826282213,0
030007,030007,ΠΛ.ΑΓ.ΠΑΡΑΣΚΕΥΗΣ,Επί της ΜΕΣΟΓΕΙΩΝ,38.013223597,23.819744466,0
030008,030008,ΙΚΑ,Επί της ΜΕΣΟΓΕΙΩΝ,38.013680261,23.829836585,0
030009,030009,ΔΗΜΗΤΡΑΣ,Επί της ΜΕΣΟΓΕΙΩΝ,38.012920438,23.834224184,0
030010,030010,ΓΕΛΑΔΑΚΗ,Επί της ΜΕΣΟΓΕΙΩΝ,38.012077120,23.837005651,0
030011,030011,ΣΤΑΥΡΟΣ,Επί της ΜΕΣΟΓΕΙΩΝ,38.011170910,23.839980846,0
030012,030012,ΓΕΛΑΔΑΚΗ,Επί της ΜΕΣΟΓΕΙΩΝ,38.012159526,23.837939586,0
030013,030013,ΔΗΜΗΤΡΑΣ,Επί της ΜΕΣΟΓΕΙΩΝ,38.013209329,23.834565289,0
030014,030014,ΙΚΑ,Επί της ΜΕΣΟΓΕΙΩΝ,38.014049192,23.829425621,0
030015,030015,ΣΑΛΑΜΙΝΟΣ,Επί της ΜΕΣΟΓΕΙΩΝ,38.014028592,23.827659914,0
030016,030016,ΚΕΑΣ,Επί της ΑΛΕΞ.ΠΑΝΑΓΟΥΛΗ,38.015265387,23.841942790,0
030017,030017,ΠΛ.ΑΓ.ΠΑΡΑΣΚΕΥΗΣ,Επί της ΜΕΣΟΓΕΙΩΝ,38.013457108,23.819208476,0
030018,030018,4η ΔΕΡΒΕΝΑΚΙΩΝ,Επί της ΔΕΡΒΕΝΑΚΙΩΝ,38.020431631,23.830367838,0
030019,030019,11η ΑΓ.ΠΑΡΑΣΚΕΥΗΣ,Επί της ΜΕΣΟΓΕΙΩΝ,38.012686714,23.816430779,0
030020,030020,ΤΟΜΠΡΑ,Επί της ΜΕΣΟΓΕΙΩΝ,38.011388930,23.810783801,0
030021,030021,9η ΜΕΣΟΓΕΙΩΝ,Επί της ΜΕΣΟΓΕΙΩΝ,38.010275406,23.807733772,0
030022,030022,ΤΟΜΠΡΑ,Επί της ΗΠΕΙΡΟΥ,38.010741782,23.811890436,0
030023,030023,1η ΑΓ.ΠΑΡΑΣΚΕΥΗΣ,Επί της ΕΛ.ΒΕΝΙΖΕΛΟΥ,38.006722513,23.812174085,0
030024,030024,2η ΑΓ.ΠΑΡΑΣΚΕΥΗΣ,Επί της ΕΛ.ΒΕΝΙΖΕΛΟΥ,38.004217246,23.812362723,0
030025,030025,3η ΑΓ.ΠΑΡΑΣΚΕΥΗΣ,Επί της ΕΛ.ΒΕΝΙΖΕΛΟΥ,38.002289685,23.813107995,0
030026,030026,4η ΑΓ.ΠΑΡΑΣΚΕΥΗΣ,Επί της ΠΑΤΡΙΑΡΧΟΥ ΓΡΗΓΟΡΙΟΥ Ε',37.999735730,23.816725029,0
030027,030027,5η ΑΓ.ΠΑΡΑΣΚΕΥΗΣ,Επί της ΠΕΛΟΠΟΝΝΗΣΟΥ,38.001046500,23.819250338,0
030028,030028,6η ΑΓ.ΠΑΡΑΣΚΕΥΗΣ,Επί της ΠΕΛΟΠΟΝΝΗΣΟΥ,38.002526554,23.820522406,0
030029,030029,7η ΑΓ.ΠΑΡΑΣΚΕΥΗΣ,Επί της ΠΕΛΟΠΟΝΝΗΣΟΥ,38.004539246,23.822385543,0
030030,030030,8η ΑΓ.ΠΑΡΑΣΚΕΥΗΣ,Επί της ΕΛΒΕΤΙΑΣ,38.004795938,23.825278121,0
030031,030031,9η ΑΓ.ΠΑΡΑΣΚΕΥΗΣ,Επί της ΕΛΒΕΤΙΑΣ,38.006195851,23.827256791,0
030032,030032,3η ΕΙΡΗΝΗΣ,Επί της ΕΙΡΗΝΗΣ,38.010966726,23.817369170,0
030033,030033,2η ΕΙΡΗΝΗΣ,Επί της ΕΙΡΗΝΗΣ,38.008545817,23.819664791,0
030034,030034,1η ΕΙΡΗΝΗΣ,Επί της ΕΙΡΗΝΗΣ,38.006358867,23.821743270,0
030035,030035,ΑΓ.ΠΑΡΑΣΚΕΥΗΣ,Επί της ΑΓ.ΙΩΑΝΝΟΥ,38.012415588,23.821808346,0
030036,030036,12η ΑΓ.ΠΑΡΑΣΚΕΥΗΣ,Επί της ΑΓ.ΙΩΑΝΝΟΥ,38.010786763,23.823464052,0
030037,030037,11η ΑΓ.ΠΑΡΑΣΚΕΥΗΣ,Επί της ΑΓ.ΙΩΑΝΝΟΥ,38.009058876,23.825188266,0
030038,030038,10η ΑΓ.ΠΑΡΑΣΚΕΥΗΣ,Επί της ΑΓ.ΙΩΑΝΝΟΥ,38.006700568,23.827255607,0
030039,030039,9η ΑΓ.ΠΑΡΑΣΚΕΥΗΣ,Επί της ΑΝΘΓΟΥ ΤΑΣΣΟΠΟΥΛΟΥ,38.005844653,23.827462647,0
030040,030040,8η ΑΓ.ΠΑΡΑΣΚΕΥΗΣ,Επί της ΑΝΘΓΟΥ ΤΑΣΣΟΠΟΥΛΟΥ,38.004823416,23.825574210,0
030041,030041,7η ΑΓ.ΠΑΡΑΣΚΕΥΗΣ,Επί της ΠΕΛΟΠΟΝΝΗΣΟΥ,38.004646952,23.822089129,0
030042,030042,6η ΑΓ.ΠΑΡΑΣΚΕΥΗΣ,Επί της ΠΕΛΟΠΟΝΝΗΣΟΥ,38.002426804,23.820123993,0
030043,030043,5η ΑΓ.ΠΑΡΑΣΚΕΥΗΣ,Επί της ΠΕΛΟΠΟΝΝΗΣΟΥ,38.001073258,23.819068033,0
030044,030044,4η ΑΓ.ΠΑΡΑΣΚΕΥΗΣ,Επί της ΠΑΤΡΙΑΡΧΟΥ ΓΡΗΓΟΡΙΟΥ Ε',38.000059800,23.816473647,0
030045,030045,3η ΑΓ.ΠΑΡΑΣΚΕΥΗΣ,Επί της ΕΛ.ΒΕΝΙΖΕΛΟΥ,38.002732144,23.813630822,0
030046,030046,2η ΑΓ.ΠΑΡΑΣΚΕΥΗΣ,Επί της ΕΛ.ΒΕΝΙΖΕΛΟΥ,38.003983875,23.812967010,0
030047,030047,1η ΑΓ.ΠΑΡΑΣΚΕΥΗΣ,Επί της ΕΛ.ΒΕΝΙΖΕΛΟΥ,38.008381340,23.812466022,0
030048,030048,1η Ν.ΖΩΗΣ,Επί της ΗΠΕΙΡΟΥ,38.009032649,23.813968001,0
030049,030049,2η Ν.ΖΩΗΣ,Επί της ΗΠΕΙΡΟΥ,38.006828220,23.816331477,0
030050,030050,3η Ν.ΖΩΗΣ,Επί της ΗΠΕΙΡΟΥ,38.005767683,23.818247759,0
030051,030051,ΚΟΛΥΜΒΗΤΗΡΙΟ,Επί της ΕΠΤΑΝΗΣΟΥ,38.004605752,23.818717638,0
030052,030052,ΗΡΑΣ,Επί της ΠΑΡΑΔΡΟΜΟ ΑΤΤΙΚΗΣ ΟΔΟΥ,38.022100938,23.844821987,0
030053,030053,ΧΙΟΥ,Επί της ΠΕΝΤΕΛΗΣ,38.018693076,23.824846389,0
030054,030054,ΠΑΡΚΟ,Επί της ΠΕΝΤΕΛΗΣ,38.017951590,23.823219016,0
030056,030056,ΠΛ.ΑΓ.ΠΑΡΑΣΚΕΥΗΣ,Επί της ΜΕΣΟΓΕΙΩΝ,38.013511429,23.819367829,0
030057,030057,ΑΓ.ΔΙΟΝΥΣΙΟΥ,Επί της ΠΕΝΤΕΛΗΣ,38.016776914,23.821228168,0
030058,030058,ΕΠΤΑΝΗΣΟΥ,Επί της ΕΠΤΑΝΗΣΟΥ,38.002647062,23.816843075,0
030059,030059,ΚΟΛΥΜΒΗΤΗΡΙΟ,Επί της ΕΠΤΑΝΗΣΟΥ,38.004695599,23.818535168,0
030060,030060,ΒΑΚΧΟΥ,Επί της ΒΑΚΧΟΥ,38.009399100,23.829789525,0
030061,030061,3η Ν.ΖΩΗΣ,Επί της ΗΠΕΙΡΟΥ,38.006712013,23.816946872,0
030062,030062,2η Ν.ΖΩΗΣ,Επί της ΗΠΕΙΡΟΥ,38.007980557,23.815497057,0
030063,030063,1η Ν.ΖΩΗΣ,Επί της ΗΠΕΙΡΟΥ,38.009168219,23.814206874,0
030064,030064,ΑΓ.ΠΑΡΑΣΚΕΥΗΣ,Επί της ΧΑΛΑΝΔΡΙΟΥ,38.014151582,23.819525746,0
030065,030065,ΣΟΥΛΙΟΥ,Επί της ΕΛΛΗΝΟΣΕΡΒΙΚΗΣ ΦΙΛΙΑΣ,38.015232750,23.819283860,0
030066,030066,1η ΔΕΡΒΕΝΑΚΙΩΝ,Επί της ΔΕΡΒΕΝΑΚΙΩΝ,38.015668531,23.821356175,0
030067,030067,2η ΔΕΡΒΕΝΑΚΙΩΝ,Επί της ΔΕΡΒΕΝΑΚΙΩΝ,38.017495391,23.825532790,0
030068,030068,ΑΓ.ΤΡΙΑΔΟΣ-ΑΡΧΗ,Επί της ΑΓΙΑΣ ΤΡΙΑΔΟΣ,38.014594283,23.832431862,0
030069,030069,ΑΓ.ΙΩΑΝΝΗΣ,Επί της ΑΣΗΜΑΚΟΠΟΥΛΟΥ,38.007360884,23.828882962,0
030070,030070,1η ΑΓ.ΤΡΙΑΔΟΣ,Επί της ΑΓ.ΤΡΙΑΔΟΣ,38.015642752,23.834537035,0
030071,030071,ΘΕΜΙΣΤΟΚΛΕΟΥΣ,Επί της ΑΣΗΜΑΚΟΠΟΥΛΟΥ,38.009040885,23.831385121,0
030072,030072,2η ΑΓ.ΤΡΙΑΔΟΣ,Επί της ΑΓ.ΤΡΙΑΔΟΣ,38.015756056,23.838239258,0
030073,030073,ΠΛ.ΥΔΡΑΣ,Επί της ΠΛ.ΥΔΡΑΣ,38.010990411,23.833317211,0
030074,030074,ΔΗΜΗΤΡΑΣ,Επί της ΔΗΜΗΤΡΑΣ,38.010607507,23.830265171,0
030076,030076,ΥΠΟΥΡΓΕΙΟ,Επί της ΚΛΕΙΣΘΕΝΟΥΣ,38.011536038,23.843408920,0
030077,030077,ΚΑΒΑΦΗ,Επί της ΚΩΝ.ΚΑΒΑΦΗ,38.016968591,23.841779638,0
030078,030078,ΘΕΜΙΣΤΟΚΛΕΟΥΣ,Επί της ΘΕΜΙΣΤΟΚΛΕΟΥΣ,38.008681497,23.832171933,0
030080,030080,ΑΓ.ΙΩΑΝΝΗΣ,Επί της ΑΘ.ΔΙΑΚΟΥ,38.007534453,23.830488684,0
030083,030083,3η ΔΕΡΒΕΝΑΚΙΩΝ,Επί της ΔΕΡΒΕΝΑΚΙΩΝ,38.018127954,23.826659158,0
030084,030084,ΧΕΙΛΩΝΟΣ,Επί της ΠΑΠΑΡΡΗΓΟΠΟΥΛΟΥ,38.019915566,23.835062895,0
030085,030085,ΨΑΡΩΝ,Επί της ΨΑΡΩΝ,38.014762389,23.830244199,0
030086,030086,ΑΓ.ΑΝΔΡΕΟΥ,Επί της ΑΓ.ΑΝΔΡΕΟΥ,38.013811190,23.833151336,0
030087,030087,ΣΟΥΛΙΟΥ,Επί της ΕΛΛΗΝΟΣΕΡΒΙΚΗΣ ΦΙΛΙΑΣ,38.015439623,23.819009939,0
030088,030088,ΓΑΡΥΤΤΟΥ,Επί της ΧΑΛΑΝΔΡΙΟΥ,38.015515964,23.815933858,0
030089,030089,ΓΑΡΥΤΤΟΥ,Επί της ΧΑΛΑΝΔΡΙΟΥ,38.015847505,23.814702666,0
030090,030090,ΑΓ.ΠΑΡΑΣΚΕΥΗΣ,Επί της ΧΑΛΑΝΔΡΙΟΥ,38.013836047,23.819469560,0
030091,030091,ΠΛ.ΑΓ.ΠΑΡΑΣΚΕΥΗΣ(ΤΕΡΜΑ),Επί της ΑΓ.ΙΩΑΝΝΟΥ,38.013380198,23.821965497,0
030092,030092,ΕΠΤΑΝΗΣΟΥ,Επί της ΕΠΤΑΝΗΣΟΥ,38.002584185,23.816979914,0
030094,030094,3η ΓΑΡΓΗΤΤΟΥ,Επί της ΚΛΕΙΣΘΕΝΟΥΣ,38.021662548,23.847295226,0
030095,030095,2η ΓΑΡΓΗΤΤΟΥ,Επί της ΚΛΕΙΣΘΕΝΟΥΣ,38.019849089,23.845852094,0
030096,030096,1η ΓΑΡΓΗΤΤΟΥ,Επί της ΚΛΕΙΣΘΕΝΟΥΣ,38.016449119,23.844230109,0
030098,030098,ΔΗΜΟΣΘΕΝΟΥΣ,Επί της ΔΗΜΟΣΘΕΝΟΥΣ,38.017620331,23.830852804,0
030099,030099,ΤΕΡΜΑ,Επί της ΗΡ.ΠΟΛΥΤΕΧΝΕΙΟΥ,38.011818212,23.820146615,0
030100,030100,ΕΡΤ,Επί της ΜΕΣΟΓΕΙΩΝ,38.013895407,23.822943959,0
030101,030101,3η ΔΕΡΒΕΝΑΚΙΩΝ,Επί της ΔΕΡΒΕΝΑΚΙΩΝ,38.019430207,23.829675185,0
030102,030102,ΓΥΜΝΑΣΙΟ,Επί της ΠΑΠΑΡΡΗΓΟΠΟΥΛΟΥ,38.017415385,23.832493794,0
030103,030103,3η ΔΕΡΒΕΝΑΚΙΩΝ,Επί της ΔΕΡΒΕΝΑΚΙΩΝ,38.019511405,23.829731961,0
030106,030106,4η ΔΕΡΒΕΝΑΚΙΩΝ,Επί της ΔΕΡΒΕΝΑΚΙΩΝ,38.021226181,23.831357205,0
030107,030107,ΣΤΑΥΡΟΣ,Επί της ΜΕΣΟΓΕΙΩΝ,38.011025867,23.839366020,0
030108,030108,4η ΔΕΡΒΕΝΑΚΙΩΝ,Επί της ΔΕΡΒΕΝΑΚΙΩΝ,38.021370598,23.831504984,0
030109,030109,ΑΓ.ΠΑΡΑΣΚΕΥΗ,Επί της ΑΓ.ΙΩΑΝΝΟΥ,38.013172887,23.821954607,0
030110,030110,ΣΤ.ΔΟΥΚ.ΠΛΑΚΕΝΤΙΑΣ,Επί της ΔΕΡΒΕΝΑΚΙΩΝ,38.023301625,23.833107033,0
030111,030111,ΗΠΕΙΡΟΥ,Επί της ΗΠΕΙΡΟΥ,38.010832492,23.812254732,0
030112,030112,ΓΥΜΝΑΣΙΟ,Επί της ΠΑΠΑΡΡΗΓΟΠΟΥΛΟΥ,38.017478620,23.832596182,0
030113,030113,ΑΛ.ΠΑΝΑΓΟΥΛΗ,Επί της ΔΕΡΒΕΝΑΚΙΩΝ,38.023202355,23.833016111,0
030114,030114,ΠΑΠΑΡΗΓΟΠΟΥΛΟΥ,Επί της ΑΛΕΞ.ΠΑΝΑΓΟΥΛΗ,38.021267612,23.835151009,0
030115,030115,ΚΑΡΑΟΛΗ ΔΗΜΗΤΡΙΟΥ,Επί της ΑΛΕΞ.ΠΑΝΑΓΟΥΛΗ,38.018369719,23.838199336,0
030116,030116,ΧΡΥΣ.ΣΜΥΡΝΗΣ,Επί της ΑΛΕΞ.ΠΑΝΑΓΟΥΛΗ,38.016741052,23.840139623,0
030122,030122,ΚΕΑΣ,Επί της ΑΛΕΞ.ΠΑΝΑΓΟΥΛΗ,38.015077203,23.842752035,0
030123,030123,ΑΓ.ΑΝΑΡΓΥΡΩΝ,Επί της ΑΛΕΞ.ΠΑΝΑΓΟΥΛΗ,38.016921958,23.840617712,0
030124,030124,ΑΓ.ΔΗΜΗΤΡΙΟΥ,Επί της ΑΛΕΞ.ΠΑΝΑΓΟΥΛΗ,38.018821360,23.838927477,0
030125,030125,ΤΕΡΜΑ,Επί της ΚΑΡΑΓΑΤΣΗ,38.020881974,23.843138389,0
030126,030126,ΠΑΠΑΡΗΓΟΠΟΥΛΟΥ,Επί της ΑΛΕΞ.ΠΑΝΑΓΟΥΛΗ,38.021142310,23.835777909,0
030411,030411,ΧΕΙΛΩΝΟΣ,Επί της ΠΑΠΑΡΡΓΟΠΟΥΛΟΥ,38.020086969,23.835176440,0
030413,030413,ΣΤ.ΝΟΜΙΣΜΑΤΟΚΟΠΕΙΟ,Επί της ΜΕΣΟΓΕΙΩΝ,38.009544549,23.807234464,0
030415,030415,ΜΙΛΤΙΑΔΟΥ,Επί της Λ.ΜΕΣΟΓΕΙΩΝ,38.011970242,23.813596044,0
030417,030417,10η ΑΓ.ΠΑΡΑΣΚΕΥΗΣ,Επί της ΑΓ.ΙΩΑΝΝΟΥ,38.007681991,23.826592627,0
030418,030418,11η ΑΓ.ΠΑΡΑΣΚΕΥΗΣ,Επί της ΑΓ.ΙΩΑΝΝΟΥ,38.009446595,23.825301258,0
030419,030419,12η ΑΓ.ΠΑΡΑΣΚΕΥΗΣ,Επί της ΑΓ.ΙΩΑΝΝΟΥ,38.011102416,23.823599993,0
030420,030420,ΚΛΕΙΣΘΕΝΟΥΣ,Επί της ΚΛΕΙΣΘΕΝΟΥΣ,38.014781101,23.843743780,0
040001,040001,ΦΟΡΟΣ,Επί της ΛΕΩΦ.ΒΟΥΛΙΑΓΜΕΝΗΣ,37.947385392,23.738560667,0
040002,040002,ΠΑΝΑΓΙΤΣΑ,Επί της ΛΕΩΦ.ΒΟΥΛΙΑΓΜΕΝΗΣ,37.944142661,23.739425743,0
040003,040003,ΔΑΡΖΕΝΤΑ-ΣΤ.ΑΓ.ΔΗΜΗΤΡΙΟΣ,Επί της ΛΕΩΦ.ΒΟΥΛΙΑΓΜΕΝΗΣ,37.940449555,23.740417513,0
040004,040004,ΕΛΚΑ,Επί της ΛΕΩΦ.ΒΟΥΛΙΑΓΜΕΝΗΣ,37.938396052,23.741073410,0
040005,040005,ΑΘΗΝΑΣ,Επί της ΛΕΩΦ.ΒΟΥΛΙΑΓΜΕΝΗΣ,37.935480573,23.743223044,0
040006,040006,ΑΓ.ΒΑΣΙΛΕΙΟΣ,Επί της ΛΕΩΦ.ΒΟΥΛΙΑΓΜΕΝΗΣ,37.933310406,23.744118192,0
040007,040007,ΚΑΡΑΜΟΛΕΓΚΟΥ-ΣΤ.ΗΛΙΟΥΠΟΛΗ,Επί της ΛΕΩΦ.ΒΟΥΛΙΑΓΜΕΝΗΣ,37.930318355,23.744230973,0
040008,040008,ΔΑΡΖΕΝΤΑ,Επί της ΛΕΩΦ.ΕΘΝ.ΑΝΤΙΣΤΑΣΕΩΣ,37.942316594,23.741036894,0
040009,040009,ΒΛΑΧΟΥ,Επί της ΛΕΩΦ.ΕΘΝ.ΑΝΤΙΣΤΑΣΕΩΣ,37.945406397,23.740297644,0
040010,040010,ΦΟΡΟΣ,Επί της ΛΕΩΦ.ΕΘΝ.ΑΝΤΙΣΤΑΣΕΩΣ,37.948045777,23.739662358,0
040011,040011,ΣΤ.ΔΑΦΝΗΣ,Επί της ΠΛ.ΚΑΛΟΓΗΡΩΝ,37.949492725,23.737801989,0
040012,040012,ΣΤ.ΑΓ.ΔΗΜΗΤΡΙΟΣ-ΑΛ.ΠΑ/ΛΗΣ,Επί της ΛΕΩΦ.ΒΟΥΛΙΑΓΜΕΝΗΣ,37.941387669,23.740767016,0
040013,040013,ΔΗΜΑΡΧΕΙΟ,Επί της ΛΕΩΦ.ΑΓ.ΔΗΜΗΤΡΙΟΥ,37.945194826,23.734345959,0
040014,040014,ΣΧΟΛΕΙΟ,Επί της ΛΕΩΦ.ΑΓ.ΔΗΜΗΤΡΙΟΥ,37.942874995,23.732795119,0
040015,040015,ΠΛ.ΑΣΤΥΝΟΜΙΑΣ,Επί της ΑΝΑΠΑΥΣΕΩΣ,37.940932850,23.730878819,0
040016,040016,ΝΕΚΡΟΤΑΦΕΙΟ,Επί της 25ης ΜΑΡΤΙΟΥ,37.939279189,23.729007082,0
040017,040017,ΠΗΛΕΩΣ,Επί της 25ης ΜΑΡΤΙΟΥ,37.938435483,23.730535137,0
040018,040018,ΠΛ.ΒΕΝΙΖΕΛΟΥ,Επί της ΛΕΩΦ.ΑΓ.ΔΗΜΗΤΡΙΟΥ,37.936053793,23.729542399,0
040019,040019,ΣΧΟΛΕΙΟ,Επί της ΛΕΩΦ.ΑΓ.ΔΗΜΗΤΡΙΟΥ,37.933915283,23.728480554,0
040020,040020,ΣΑΡΩΝΙΚΟΣ,Επί της ΛΕΩΦ.ΑΓ.ΔΗΜΗΤΡΙΟΥ,37.930856344,23.726944246,0
040021,040021,ΓΕΦΥΡΑ,Επί της ΛΕΩΦ.ΑΓ.ΔΗΜΗΤΡΙΟΥ,37.927762180,23.725772311,0
040022,040022,1η ΚΑΛΑΜΑΚΙΟΥ,Επί της ΛΕΩΦ.ΑΓ.ΔΗΜΗΤΡΙΟΥ,37.925262694,23.724529987,0
040023,040023,ΥΠΟΥΡΓΕΙΟ,Επί της ΛΕΩΦ.ΑΓ.ΔΗΜΗΤΡΙΟΥ,37.923493262,23.723296388,0
040024,040024,ΓΗΠΕΔΟ,Επί της ΛΕΩΦ.ΑΓ.ΔΗΜΗΤΡΙΟΥ,37.921651500,23.721972100,0
040025,040025,ΓΗΠΕΔΟ,Επί της ΛΕΩΦ.ΑΓ.ΔΗΜΗΤΡΙΟΥ,37.921688626,23.722427068,0
040026,040026,ΥΠΟΥΡΓΕΙΟ,Επί της ΛΕΩΦ.ΑΓ.ΔΗΜΗΤΡΙΟΥ,37.923476172,23.723694681,0
040027,040027,1η ΚΑΛΑΜΑΚΙΟΥ,Επί της ΛΕΩΦ.ΑΓ.ΔΗΜΗΤΡΙΟΥ,37.925299703,23.724939466,0
040028,040028,ΣΤΡΟΦΗ ΑΓ.ΒΑΡΒΑΡΑΣ,Επί της ΛΕΩΦ.ΑΓ.ΔΗΜΗΤΡΙΟΥ,37.927627862,23.726148304,0
040029,040029,ΓΕΦΥΡΑ,Επί της ΛΕΩΦ.ΑΓ.ΔΗΜΗΤΡΙΟΥ,37.929530872,23.726698812,0
040030,040030,ΣΑΡΩΝΙΚΟΣ,Επί της ΛΕΩΦ.ΑΓ.ΔΗΜΗΤΡΙΟΥ,37.931254070,23.727443458,0
040031,040031,ΓΕΦΥΡΑΚΙ,Επί της ΛΕΩΦ.ΑΓ.ΔΗΜΗΤΡΙΟΥ,37.933419760,23.728562033,0
040032,040032,ΠΛ.ΕΛ.ΒΕΝΙΖΕΛΟΥ,Επί της ΛΕΩΦ.ΑΓ.ΔΗΜΗΤΡΙΟΥ,37.936144497,23.729792425,0
040034,040034,ΠΡΙΑΜΟΥ,Επί της ΒΑΣ.ΑΜΑΛΙΑΣ,37.938124091,23.736306049,0
040035,040035,ΑΠ.ΠΑΥΛΟΥ,Επί της ΛΕΩΦ.ΑΓ.ΔΗΜΗΤΡΙΟΥ,37.937488978,23.730470311,0
040036,040036,ΑΓ.ΔΗΜΗΤΡΙΟΣ,Επί της ΛΕΩΦ.ΑΓ.ΔΗΜΗΤΡΙΟΥ,37.939482925,23.731384845,0
040037,040037,ΠΛ.ΑΣΤΥΝΟΜΙΑΣ,Επί της ΛΕΩΦ.ΑΓ.ΔΗΜΗΤΡΙΟΥ,37.940717919,23.731482776,0
040038,040038,ΣΧΟΛΕΙΟ,Επί της ΛΕΩΦ.ΑΓ.ΔΗΜΗΤΡΙΟΥ,37.942361108,23.732728694,0
040039,040039,ΑΣΤΕΡΑΣ,Επί της ΛΕΩΦ.ΑΓ.ΔΗΜΗΤΡΙΟΥ,37.945457559,23.734948226,0
040040,040040,ΑΝΤΙΟΠΗΣ,Επί της ΛΕΩΦ.ΑΓ.ΔΗΜΗΤΡΙΟΥ,37.946766724,23.735967863,0
040042,040042,ΣΟΦΟΚΛΕΟΥΣ,Επί της ΠΡΙΑΜΟΥ,37.938366468,23.735872733,0
040045,040045,ΑΜΑΛΙΑΣ,Επί της ΚΟΛΟΚΟΤΡΩΝΗ,37.937203069,23.735546873,0
040046,040046,ΕΘΝ.ΜΑΚΑΡΙΟΥ,Επί της ΚΟΛΟΚΟΤΡΩΝΗ,37.935079782,23.737227305,0
040047,040047,ΚΟΛΟΚΟΤΡΩΝΗ,Επί της ΑΓ.ΒΑΣΙΛΕΙΟΥ,37.933458862,23.737858947,0
040048,040048,ΔΡΑΜΑΣ,Επί της ΑΓ.ΒΑΣΙΛΕΙΟΥ,37.933125228,23.733774907,0
040049,040049,ΕΥΡΩΤΑ,Επί της ΔΕΛΦΩΝ,37.930991928,23.735000166,0
040050,040050,ΑΓ.ΑΘΑΝΑΣΙΟΥ,Επί της ΑΓ.ΑΘΑΝΑΣΙΟΥ,37.929290108,23.735723143,0
040051,040051,ΣΟΥΛΙΟΥ,Επί της ΣΟΥΛΙΟΥ,37.927447766,23.734079843,0
040052,040052,ΜΑΝΤΑ,Επί της ΠΛΟΥΤΑΡΧΟΥ,37.924920759,23.732587022,0
040053,040053,ΠΑΠΑΝΙΚΟΛΑΟΥ,Επί της ΚΑΤΣΙΜΠΑ,37.923988386,23.730815422,0
040054,040054,ΜΑΚΡΥΓΙΑΝΝΗ,Επί της ΑΛ.ΑΣΗΜΑΚΟΠΟΥΛΟΥ,37.921075064,23.729881700,0
040055,040055,ΠΑΠΑΔΗΜΑ,Επί της ΑΛ.ΑΣΗΜΑΚΟΠΟΥΛΟΥ,37.923096632,23.731046231,0
040056,040056,ΠΛΟΥΤΑΡΧΟΥ,Επί της ΠΛΟΥΤΑΡΧΟΥ,37.924650321,23.732565245,0
040057,040057,ΤΡΙΚΑΛΩΝ,Επί της ΣΟΥΛΙΟΥ,37.927448665,23.734478090,0
040058,040058,ΠΡΕΒΕΖΗΣ,Επί της ΠΡΕΒΕΖΗΣ,37.929400125,23.736553408,0
040059,040059,ΡΟΥΜΕΛΗΣ,Επί της ΔΕΛΦΩΝ,37.931209005,23.735340762,0
040060,040060,ΑΜΦΙΛΟΧΙΑΣ,Επί της ΑΓ.ΒΑΣΙΛΕΙΟΥ,37.933017434,23.733934608,0
040061,040061,ΠΛ.ΑΓ.ΒΑΣΙΛΕΙΟΥ,Επί της ΑΓ.ΒΑΣΙΛΕΙΟΥ,37.933587067,23.738768854,0
040062,040062,ΖΑΙΜΗ,Επί της ΑΘ.ΔΙΑΚΟΥ,37.935216776,23.738034781,0
040064,040064,3η ΠΑΠΑΓΟΥ,Επί της ΣΤΡΧΟΥ ΑΛΕΞ.ΠΑΠΑΓΟΥ,37.939853691,23.735912933,0
040065,040065,2η ΠΑΠΑΓΟΥ,Επί της ΣΤΡΧΟΥ ΑΛΕΞ.ΠΑΠΑΓΟΥ,37.942192295,23.737816548,0
040066,040066,ΣΤ.ΑΓ.ΔΗΜΗΤΡΙΟΣ,Επί της ΔΙΑΜ.ΧΩΡΟ ΣΤ.ΑΓ.ΔΗΜΗΤΡΙΟΥ,37.941297841,23.740903900,0
040067,040067,ΝΕΚΡ.ΚΑΛΛΙΘΕΑΣ,Επί της ΑΓ.ΘΕΟΔΩΡΩΝ,37.929821216,23.716092561,0
040068,040068,ΣΤΡΟΦΗ ΑΣΥΡΜΑΤΟΥ,Επί της ΑΓ.ΘΕΟΔΩΡΩΝ,37.929293781,23.717892450,0
040069,040069,ΠΥΛΗ ΑΣΥΡΜΑΤΟΥ,Επί της ΑΜΦΙΣΣΗΣ,37.931021913,23.720685112,0
040070,040070,3η ΑΣΥΡΜΑΤΟΥ,Επί της ΑΣΥΡΜΑΤΟΥ,37.932845366,23.721884431,0
040071,040071,4η ΑΣΥΡΜΑΤΟΥ,Επί της ΑΣΥΡΜΑΤΟΥ,37.934352151,23.722572912,0
040073,040073,ΑΓ.ΚΩΝ/ΝΟΥ,Επί της ΣΤΡΧΟΥ ΑΛΕΞ.ΜΑΚΡΥΓΙΑΝΝΗ,37.925041486,23.730197160,0
040074,040074,ΑΦΕΤΗΡΙΑ,Επί της ΑΡΓΟΛΙΔΟΣ,37.926001216,23.724299665,0
040075,040075,ΑΓ.ΔΗΜΗΤΡΙΟΣ,Επί της ΑΓΩΝ.ΠΟΛΥΤΕΧΝΕΙΟΥ 1973,37.931288670,23.726817476,0
040076,040076,ΓΕΦΥΡΑΚΙ,Επί της ΑΓΩΝ.ΠΟΛΥΤΕΧΝΕΙΟΥ 1973,37.933427759,23.724249173,0
040077,040077,4η ΑΣΥΡΜΑΤΟΥ,Επί της ΑΣΥΡΜΑΤΟΥ,37.934171062,23.722220825,0
040078,040078,3η ΑΣΥΡΜΑΤΟΥ,Επί της ΑΣΥΡΜΑΤΟΥ,37.932492815,23.721441964,0
040081,040081,5η ΑΓ.ΒΑΡΒΑΡΑΣ,Επί της ΑΓ.ΒΑΡΒΑΡΑΣ,37.923186652,23.719417666,0
040082,040082,6η ΑΓ.ΒΑΡΒΑΡΑΣ,Επί της ΑΓ.ΒΑΡΒΑΡΑΣ,37.924408953,23.721756913,0
040083,040083,7η ΑΓ.ΒΑΡΒΑΡΑΣ,Επί της ΑΓ.ΒΑΡΒΑΡΑΣ,37.925476601,23.723505144,0
040084,040084,ΔΙΑΣΤ.ΑΓ.ΔΗΜΗΤΡΙΟΥ,Επί της ΑΓ.ΒΑΡΒΑΡΑΣ,37.926968173,23.725399769,0
040085,040085,8η ΑΓ.ΒΑΡΒΑΡΑΣ,Επί της ΑΓ.ΒΑΡΒΑΡΑΣ,37.925755519,23.723299290,0
040086,040086,7η ΑΓ.ΒΑΡΒΑΡΑΣ,Επί της ΑΓ.ΒΑΡΒΑΡΑΣ,37.924606537,23.721460336,0
040087,040087,6η ΑΓ.ΒΑΡΒΑΡΑΣ,Επί της ΑΓ.ΒΑΡΒΑΡΑΣ,37.923484131,23.719439292,0
040092,040092,25ης ΜΑΡΤΙΟΥ,Επί της 25ης ΜΑΡΤΙΟΥ,37.937015893,23.732486309,0
040093,040093,ΑΦΕΤΗΡΙΑ(ΑΓ.ΔΗΜΗΤΡΙΟ),Επί της ΑΡΓΟΣΤΟΛΙΟΥ,37.925804363,23.728794839,0
040094,040094,ΧΡ.ΣΜΥΡΝΗΣ,Επί της ΧΡΥΣΟΣΤΟΜΟΥ ΣΜΥΡΝΗΣ,37.936457484,23.732659032,0
040095,040095,4η ΠΑΠΑΓΟΥ,Επί της ΣΤΡΧΟΥ ΑΛΕΞ.ΠΑΠΑΓΟΥ,37.937416583,23.734305675,0
040096,040096,ΠΑΝΑΓΙΤΣΑ,Επί της ΝΟΤΑΡΑ,37.944407755,23.737046137,0
040099,040099,ΒΕΡΓΙΝΑΣ,Επί της ΑΡΤΗΣ,37.932391760,23.724457871,0
040100,040100,ΣΤΡ.ΜΑΚΡΥΓΙΑΝΝΗ,Επί της ΘΕΟΜΗΤΟΡΟΣ,37.918386505,23.728708305,0
040101,040101,ΚΑΠΕΤΑΝΑΚΗ,Επί της ΘΕΟΜΗΤΟΡΟΣ,37.919370509,23.725507660,0
040102,040102,ΜΕΝΕΛΑΟΥ,Επί της ΘΕΟΜΗΤΟΡΟΣ,37.919916328,23.723810396,0
040103,040103,ΜΟΥΡΙΚΗ,Επί της ΧΡΥΣΟΣΤΟΜΟΥ ΣΜΥΡΝΗΣ,37.937418619,23.731233036,0
040104,040104,ΜΠΟΤΣΑΡΗ,Επί της ΣΤΡΓΟΥ ΜΑΚΡΥΓΙΑΝΝΗ,37.921199414,23.729084812,0
040105,040105,ΚΡΥΣΤΑΛΛΗ,Επί της ΠΡΙΑΜΟΥ,37.936181411,23.734128043,0
040107,040107,ΜΟΥΣΩΝ,Επί της ΑΡΓΟΣΤΟΛΙΟΥ,37.923334049,23.728462572,0
040109,040109,ΑΣΠΡΟΠΟΤΑΜΟΥ,Επί της ΑΡΓΟΣΤΟΛΙΟΥ,37.921322970,23.727946595,0
040111,040111,ΠΑΛ.ΤΕΡΜΑ,Επί της ΠΡΙΑΜΟΥ,37.941418178,23.738263147,0
040112,040112,ΑΛΚΙΝΟΟΥ,Επί της ΛΕΩΦ.ΑΛ.ΠΑΠΑΝΑΣΤΑΣΙΟΥ,37.945229289,23.729690875,0
040113,040113,ΤΕΡΜΑ,Επί της ΚΟΥΝΤΟΥΡΙΩΤΟΥ,37.932496283,23.719109183,0
040114,040114,ΑΡΣΑΚΕΙΟΥ,Επί της ΕΥΞΕΙΝΟΥ ΠΟΝΤΟΥ,37.939995399,23.723063824,0
040115,040115,ΨΥΧΟΓΙΟΥ,Επί της ΑΙΝΟΥ,37.943640724,23.728695159,0
040116,040116,ΑΛΣΟΣ,Επί της ΛΕΩΦ.ΑΛ.ΠΑΠΑΝΑΣΤΑΣΙΟΥ,37.946127726,23.732384990,0
040117,040117,ΚΟΥΝΤΟΥΡΙΩΤΟΥ,Επί της ΚΟΥΝΤΟΥΡΙΩΤΟΥ,37.931941089,23.720624738,0
040118,040118,ΜΑΚΡΥΓΙΑΝΝΗ,Επί της ΚΑΤΣΙΜΠΑ,37.922823614,23.729898061,0
041106,041106,ΛΥΣΑΝΔΡΟΥ,Επί της ΛΕΩΦ.ΑΓ.ΔΗΜΗΤΡΙΟΥ,37.944067192,23.733894773,0
041108,041108,ΔΙΑΣΤΑΥΡΩΣΗ ΑΓ.ΔΗΜΗΤΡΙΟΥ,Επί της ΛΕΩΦ. ΑΓ. ΒΑΡΒΑΡΑΣ,37.926760930,23.725423297,0
050001,050001,ΜΥΚΟΝΙΑΤΙΚΑ,Επί της ΛΕΩΦ.ΔΗΜΟΚΡΑΤΙΑΣ,38.020450179,23.717999084,0
050002,050002,301 ΕΡΓ.ΒΑΣΕΩΣ,Επί της ΛΕΩΦ.ΔΗΜΟΚΡΑΤΙΑΣ,38.024334658,23.717984198,0
050003,050003,ΠΛ.ΑΓ.ΑΝΑΡΓΥΡΩΝ,Επί της ΗΡ.ΠΟΛΥΤΕΧΝΕΙΟΥ,38.028209493,23.717707280,0
050004,050004,ΙΚΑ,Επί της ΗΡ.ΠΟΛΥΤΕΧΝΕΙΟΥ,38.030921494,23.717355036,0
050005,050005,ΑΓ.ΦΡΑΓΚΙΣΚΟΣ,Επί της ΗΡ.ΠΟΛΥΤΕΧΝΕΙΟΥ,38.029713464,23.717222945,0
050006,050006,ΑΓ.ΑΝΑΡΓΥΡΩΝ,Επί της ΗΡ.ΠΟΛΥΤΕΧΝΕΙΟΥ,38.026388872,23.717691477,0
050007,050007,301 ΕΡΓ.ΒΑΣΕΩΣ,Επί της ΛΕΩΦ.ΔΗΜΟΚΡΑΤΙΑΣ,38.024243875,23.717711101,0
050008,050008,ΓΕΦΥΡΑ,Επί της ΚΩΝΣΤΑΝΤΙΝΟΥΠΟΛΕΩΣ,38.046004484,23.730847981,0
050009,050009,ΜΥΚΟΝΙΑΤΙΚΑ,Επί της ΛΕΩΦ.ΔΗΜΟΚΡΑΤΙΑΣ,38.020467521,23.717714194,0
050010,050010,ΤΡΕΙΣ ΓΕΦΥΡΕΣ,Επί της ΝΕΑ ΕΘΝΙΚΗ,38.015295014,23.718064405,0
050011,050011,Κ.Ε.Π.,Επί της ΝΙΚ.ΠΛΑΣΤΗΡΑ,38.021537960,23.720615332,0
050012,050012,3η ΑΒΕΡΩΦ,Επί της ΝΙΚ.ΠΛΑΣΤΗΡΑ,38.023298302,23.721816347,0
050013,050013,ΝΑΞΟΥ,Επί της ΝΙΚ.ΠΛΑΣΤΗΡΑ,38.025375980,23.723825178,0
050014,050014,ΣΧΟΛΕΙΟ,Επί της ΣΥΡΟΥ,38.028485605,23.723916053,0
050015,050015,ΗΠΕΙΡΟΥ,Επί της ΣΟΦ.ΒΕΝΙΖΕΛΟΥ,38.029250400,23.723366256,0
050016,050016,5η,Επί της ΓΕΩΡΓ.ΠΑΠΑΝΔΡΕΟΥ,38.032139033,23.725303896,0
050017,050017,6η,Επί της ΓΕΩΡΓ.ΠΑΠΑΝΔΡΕΟΥ,38.034650341,23.727778659,0
050018,050018,ΝΑΥΠΛΙΟΥ,Επί της ΝΙΚ.ΠΛΑΣΤΗΡΑ,38.027254732,23.725572801,0
050019,050019,7η,Επί της ΓΕΩΡΓ.ΠΑΠΑΝΔΡΕΟΥ,38.037448223,23.729477640,0
050020,050020,9η,Επί της ΓΕΩΡΓ.ΠΑΠΑΝΔΡΕΟΥ,38.038704022,23.730794931,0
050022,050022,ΓΥΜΝΑΣΙΟ,Επί της ΚΑΛΥΜΝΟΥ,38.040217580,23.730538678,0
050023,050023,ΑΓΙΩΝ ΑΝΑΡΓΥΡΩΝ,Επί της ΛΑΜΠΡΟΥ ΚΑΤΣΩΝΗ,38.026183707,23.726214851,0
050024,050024,ΓΥΜΝΑΣΙΟ,Επί της ΚΑΛΥΜΝΟΥ,38.040469883,23.730514961,0
050025,050025,10η,Επί της ΑΚΡΟΠΟΛΕΩΣ,38.040214018,23.728988834,0
050026,050026,9η,Επί της ΣΤΟΥΡΝΑΡΗ,38.039240279,23.728832880,0
050027,050027,Π.ΤΕΡΜΑ,Επί της ΑΓ.ΠΑΡΑΣΚΕΥΗΣ,38.037217983,23.727347521,0
050028,050028,7η,Επί της ΑΓ.ΠΑΡΑΣΚΕΥΗΣ,38.035855187,23.726543504,0
050029,050029,6η,Επί της ΑΓ.ΠΑΡΑΣΚΕΥΗΣ,38.034284827,23.725626340,0
050030,050030,5η,Επί της ΑΓ.ΠΑΡΑΣΚΕΥΗΣ,38.031983550,23.724335925,0
050031,050031,4η,Επί της ΣΟΦ.ΒΕΝΙΖΕΛΟΥ,38.029980268,23.723295145,0
050032,050032,ΣΧΟΛΕΙΟ,Επί της ΣΟΦ.ΒΕΝΙΖΕΛΟΥ,38.028293416,23.722674811,0
050033,050033,ΝΑΞΟΥ,Επί της ΣΟΦ.ΒΕΝΙΖΕΛΟΥ,38.025685943,23.721499688,0
050034,050034,ΠΑΠΑΔΟΠΟΥΛΟΣ,Επί της ΝΙΚ.ΠΛΑΣΤΗΡΑ,38.023541187,23.721621740,0
050035,050035,Κ.Ε.Π.,Επί της ΝΙΚ.ΠΛΑΣΤΗΡΑ,38.021573225,23.720284797,0
050036,050036,ΜΥΚΟΝΙΑΤΙΚΑ,Επί της ΝΙΚ.ΠΛΑΣΤΗΡΑ,38.018947102,23.718859297,0
050037,050037,ΠΛΑΤΕΙΑ ΑΓ.ΑΝΑΡΓΥΡΩΝ,Επί της ΠΛ.ΑΓ.ΑΝΑΡΓΥΡΩΝ,38.027787235,23.718267210,0
050038,050038,ΝΤΑΛΙΑ,Επί της ΑΓ.ΑΝΑΡΓΥΡΩΝ,38.027423909,23.720866438,0
050039,050039,ΕΜΠΟΡΙΚΟ ΚΕΝΤΡΟ,Επί της ΛΕΩΦ.ΔΗΜΟΚΡΑΤΙΑΣ,38.028798920,23.719209057,0
050040,050040,ΠΛΑΤΕΙΑ ΑΓ.ΑΝΑΡΓΥΡΩΝ,Επί της ΛΕΩΦ.ΔΗΜΟΚΡΑΤΙΑΣ,38.026831888,23.718270868,0
050041,050041,ΓΕΦΥΡΑΚΙ,Επί της ΛΕΩΦ.ΔΗΜΟΚΡΑΤΙΑΣ,38.031624937,23.721317680,0
050042,050042,ΜΗΤΕΡΑ,Επί της ΛΕΩΦ.ΔΗΜΟΚΡΑΤΙΑΣ,38.035090523,23.723298712,0
050043,050043,ΝΕΚΡΟΤΑΦΕΙΟ,Επί της ΛΕΩΦ.ΔΗΜΟΚΡΑΤΙΑΣ,38.036462113,23.724000068,0
050044,050044,5η ΜΕΝΙΔΙΟΥ,Επί της ΛΕΩΦ.ΔΗΜΟΚΡΑΤΙΑΣ,38.040558513,23.725967608,0
050045,050045,ΜΟΥΣΙΚΟ ΣΧΟΛΕΙΟ ΙΛΙΟΥ,Επί της ΛΕΩΦ.ΔΗΜΟΚΡΑΤΙΑΣ,38.045503756,23.728661623,0
050046,050046,7η ΜΕΝΙΔΙΟΥ,Επί της ΛΕΩΦ.ΔΗΜΟΚΡΑΤΙΑΣ,38.048822209,23.729424395,0
050047,050047,8η ΜΕΝΙΔΙΟΥ,Επί της ΛΕΩΦ.ΔΗΜΟΚΡΑΤΙΑΣ,38.051960062,23.730039725,0
050054,050054,ΓΕΦΥΡΑΚΙ,Επί της ΛΕΩΦ.ΔΗΜΟΚΡΑΤΙΑΣ,38.030902326,23.720648138,0
050055,050055,ΓΕΦΥΡΑ,Επί της ΑΓ.ΑΝΑΡΓΥΡΩΝ,38.027198338,23.724581735,0
050057,050057,ΛΥΚΕΙΟ,Επί της ΑΓ.ΑΝΑΡΓΥΡΩΝ,38.027724136,23.722050283,0
050058,050058,ΑΓ.ΠΑΝΤΕΛΕΗΜΟΝΑ,Επί της ΕΘΝΙΚΗ ΟΔΟΣ,38.014511071,23.718135760,0
050059,050059,ΑΓ.ΑΝΑΡΓΥΡΩΝ,Επί της ΚΥΠΡΟΥ,38.028009049,23.716807914,0
050060,050060,ΑΓ.ΑΝΑΡΓΥΡΟΙ,Επί της ΚΥΠΡΟΥ,38.027432976,23.717117770,0
050061,050061,ΚΑΛΥΜΝΟΥ,Επί της ΚΑΛΥΜΝΟΥ,38.042962641,23.732807905,0
050062,050062,ΓΕΦΥΡΑ,Επί της ΚΩΝΣΤΑΝΤΙΝΟΥΠΟΛΕΩΣ,38.045229445,23.730873611,0
050063,050063,ΓΕΦΥΡΑ ΒΟΡΤΣΗ,Επί της ΚΩΝΣΤΑΝΤΙΝΟΥΠΟΛΕΩΣ,38.047980007,23.731604362,0
050065,050065,ΚΩΝΣΤΑΝΤΙΝΟΥΠΟΛΕΩΣ,Επί της ΑΓ.ΚΩΝΣΤΑΝΤΙΝΟΥ-ΕΛΕΝΗΣ,38.051001541,23.732596326,0
050067,050067,ΓΕΦΥΡΑ ΒΟΡΤΣΗ,Επί της ΚΩΝΣΤΑΝΤΙΝΟΥΠΟΛΕΩΣ,38.048096469,23.731296211,0
050069,050069,Π.ΤΕΡΜΑ,Επί της ΚΑΛΥΜΝΟΥ,38.042140384,23.731887792,0
050070,050070,ΓΕΦΥΡΑ,Επί της ΑΓ.ΑΝΑΡΓΥΡΩΝ,38.027235748,23.725162688,0
050071,050071,ΠΕΤΙΧΑΚΗ,Επί της ΚΥΠΡΙΩΝ ΑΓΩΝΙΣΤΩΝ,38.043906481,23.731710404,0
050072,050072,ΚΕΝΝΕΝΤΥ,Επί της ΚΕΝΝΕΝΤΥ,38.043372884,23.730903200,0
050073,050073,ΜΥΚΟΝΙΑΤΙΚΑ,Επί της ΝΙΚ.ΠΛΑΣΤΗΡΑ,38.019308835,23.719370590,0
050075,050075,ΠΥΡΓΟΣ ΒΑΣΙΛΙΣΣΗΣ,Επί της ΚΩΝΣΤΑΝΤΙΝΟΥΠΟΛΕΩΣ,38.039335808,23.727271294,0
050076,050076,ΑΦΕΤΗΡΙΑ,Επί της ΠΛ.ΣΚΡΑ,38.047481561,23.734364288,0
050077,050077,ΠΑΙΔΙΚΗ ΧΑΡΑ,Επί της ΜΠΟΥΜΠΟΥΛΙΝΑΣ,38.045605246,23.733630272,0
050078,050078,ΑΓΙΩΝ ΜΥΡΟΦΟΡΩΝ,Επί της ΚΟΛΟΚΟΤΡΩΝΗ,38.044316380,23.733612148,0
050079,050079,ΠΑΠΑΝΔΡΕΟΥ,Επί της ΛΑΜΠΡΟΥ ΚΑΤΣΩΝΗ,38.040350795,23.733626513,0
050080,050080,ΒΡΥΟΥΛΩΝ,Επί της ΛΑΜΠΡΟΥ ΚΑΤΣΩΝΗ,38.036867307,23.731622129,0
050081,050081,ΠΙΝΔΑΡΟΥ,Επί της ΛΑΜΠΡΟΥ ΚΑΤΣΩΝΗ,38.035837566,23.730623097,0
050082,050082,ΠΡΑΚΤΟΡΕΙΑ ΤΥΠΟΥ,Επί της ΛΑΜΠΡΟΥ ΚΑΤΣΩΝΗ,38.031515896,23.728644858,0
050083,050083,ΑΓΙΩΝ ΑΝΑΡΓΥΡΩΝ,Επί της ΛΑΜΠΡΟΥ ΚΑΤΣΩΝΗ,38.027256803,23.726461526,0
050084,050084,ΤΕΧΝΙΚΟ ΛΥΚΕΙΟ,Επί της ΛΑΜΠΡΟΥ ΚΑΤΣΩΝΗ,38.029421996,23.727376416,0
050085,050085,ΤΕΧΝΙΚΟ ΛΥΚΕΙΟ,Επί της ΛΑΜΠΡΟΥ ΚΑΤΣΩΝΗ,38.029368738,23.727729838,0
050087,050087,ΔΙΑΚΟΥ,Επί της ΛΕΩΦ.ΔΗΜΟΚΡΑΤΙΑΣ,38.033249461,23.722257304,0
050088,050088,1η ΠΟΛΥΚΑΤΟΙΚΙΩΝ,Επί της ΛΕΩΦ.ΔΗΜΟΚΡΑΤΙΑΣ,38.043491239,23.727506605,0
050089,050089,ΕΜΠ.ΚΕΝΤΡΟ,Επί της ΔΗΜΟΚΡΑΤΙΑΣ,38.028781520,23.719471191,0
050090,050090,ΑΓ.ΑΝΑΡΓΥΡΟΙ,Επί της ΚΩΝΣΤΑΝΤΙΝΟΥΠΟΛΕΩΣ,38.021623197,23.718564245,0
050091,050091,ΑΓ.ΝΙΚΟΛΑΟΣ,Επί της ΛΑΜΠΡΟΥ ΚΑΤΣΩΝΗ,38.033762867,23.729855835,0
050092,050092,ΑΓ.ΝΙΚΟΛΑΟΣ,Επί της ΛΑΜΠΡΟΥ ΚΑΤΣΩΝΗ,38.033644995,23.729548603,0
050093,050093,ΠΛ.ΑΓ.ΑΝΑΡΓΥΡΩΝ,Επί της ΗΡ.ΠΟΛΥΤΕΧΝΕΙΟΥ,38.028046744,23.717491416,0
060001,060001,ΑΦΕΤΗΡΙΑ,Επί της ΠΑΡΑΔΡΟΜΟ ΜΕΣΟΓΕΙΩΝ,37.993701185,23.777300558,0
060002,060002,ΠΛ.ΣΥΝΤΑΓΜΑΤΟΣ,Επί της ΛΕΩΦ.ΒΑΣ.ΑΜΑΛΙΑΣ,37.974641918,23.735219055,0
060003,060003,ΠΛ.ΣΥΝΤΑΓΜΑΤΟΣ,Επί της ΛΕΩΦ.ΒΑΣ.ΑΜΑΛΙΑΣ,37.975092840,23.735342681,0
060004,060004,ΣΤ.ΣΕΠΟΛΙΩΝ,Επί της ΑΝΤΙΓΟΝΗΣ,38.002783429,23.713590401,0
060005,060005,ΣΤ.ΑΚΡΟΠΟΛΗ,Επί της ΣΤΡΓΟΥ ΜΑΚΡΥΓΙΑΝΝΗ,37.968743740,23.729604687,0
060006,060006,ΔΟΜΟΚΟΥ,Επί της ΔΟΜΟΚΟΥ,37.995167966,23.721250666,0
060007,060007,ΣΤ.ΣΥΓΓΡΟΥ-ΦΙΞ,Επί της ΛΕΩΦ.ΣΥΓΓΡΟΥ,37.964518934,23.726671647,0
060008,060008,ΖΩΟΔ.ΠΗΓΗΣ,Επί της ΑΚΑΔΗΜΙΑΣ,37.983531515,23.732522503,0
060009,060009,ΑΓ.ΒΑΡΒΑΡΑ,Επί της ΑΓ.ΛΑΥΡΑΣ,38.023271103,23.737425383,0
060010,060010,ΝΑΥΑΡΙΝΟΥ,Επί της ΧΑΡ.ΤΡΙΚΟΥΠΗ,37.983536543,23.734742996,0
060011,060011,ΑΡΑΧΩΒΗΣ,Επί της ΧΑΡ.ΤΡΙΚΟΥΠΗ,37.984903426,23.737391351,0
060012,060012,ΚΑΛΛΙΔΡΟΜΙΟΥ,Επί της ΧΑΡ.ΤΡΙΚΟΥΠΗ,37.985808657,23.739164589,0
060013,060013,ΤΣΙΜΙΣΚΗ,Επί της ΧΑΡ.ΤΡΙΚΟΥΠΗ,37.986849480,23.741130985,0
060014,060014,ΛΑΣΚΑΡΕΩΣ,Επί της ΧΑΡ.ΤΡΙΚΟΥΠΗ,37.988352006,23.744052418,0
060015,060015,ΚΡΙΕΖΩΤΟΥ,Επί της ΠΑΝΕΠΙΣΤΗΜΙΟΥ,37.977706730,23.735412999,0
060016,060016,ΣΤ.ΝΕΟΣ ΚΟΣΜΟΣ,Επί της ΠΛ.ΚΑΡΑΙΣΚΑΚΗ,37.957700635,23.728597917,0
060017,060017,ΑΓ.ΕΛΕΥΘΕΡΙΟΣ,Επί της ΜΟΜΦΕΡΑΤΟΥ,37.990880593,23.746355473,0
060018,060018,ΜΟΜΦΕΡΑΤΟΥ,Επί της ΜΟΜΦΕΡΑΤΟΥ,37.990595343,23.747825550,0
060019,060019,ΣΚΑΛΑΚΙΑ,Επί της ΓΚΥΖΗ,37.992445350,23.748935301,0
060020,060020,ΤΕΡΜΑ,Επί της ΠΛ.ΓΚΥΖΗ,37.993383360,23.749250990,0
060021,060021,ΣΚΑΛΑΚΙΑ,Επί της ΓΚΥΖΗ,37.992020971,23.748572314,0
060022,060022,ΜΟΜΦΕΡΑΤΟΥ,Επί της ΓΚΥΖΗ,37.990920681,23.748234418,0
060023,060023,ΠΑΡΑΣΧΟΥ,Επί της ΓΚΥΖΗ,37.989937605,23.747918907,0
060024,060024,ΙΠΠΟΚΡΑΤΟΥΣ(ΑΦΕΤΗΡΙΑ),Επί της ΙΠΠΟΚΡΑΤΟΥΣ,37.988430122,23.746830817,0
060025,060025,ΑΦΕΤΗΡΙΑ,Επί της ΟΘΩΝΟΣ,37.974866032,23.734683113,0
060026,060026,ΣΤ.ΑΓ.ΙΩΑΝΝΗΣ,Επί της ΑΜΒΡ.ΦΡΑΝΤΖΗ,37.956469599,23.734180145,0
060027,060027,ΣΤ.ΛΑΡΙΣΗΣ,Επί της ΔΗΛΗΓΙΑΝΝΗ,37.991931278,23.720795984,0
060028,060028,ΑΓ.ΠΑΥΛΟΣ,Επί της ΔΗΛΗΓΙΑΝΝΗ,37.989640196,23.720030271,0
060029,060029,ΣΤ.ΚΕΡΑΜΕΙΚΟΥ,Επί της ΑΓΝΩΣΤΗ ΠΛΑΤΕΙΑ,37.978660257,23.711623217,0
060030,060030,ΖΩΟΔΟΧΟΣ ΠΗΓΗ,Επί της ΣΟΛΩΝΟΣ,37.984435634,23.733771833,0
060031,060031,ΜΠΟΤΑΣΗ,Επί της ΣΟΛΩΝΟΣ,37.985668216,23.732810824,0
060032,060032,ΑΦΕΤΗΡΙΑ,Επί της ΒΑΣ.ΗΡΑΚΛΕΙΟΥ,37.989606541,23.732682659,0
060033,060033,ΠΟΛΥΤΕΧΝΕΙΟ,Επί της ΜΠΟΥΜΠΟΥΛΙΝΑΣ,37.987399755,23.733282834,0
060034,060034,ΑΓ.ΒΑΣΙΛΕΙΟΣ,Επί της ΜΠΟΥΜΠΟΥΛΙΝΑΣ,37.990619121,23.734068362,0
060035,060035,ΠΑΡΚΟ,Επί της ΛΕΩΦ.ΑΛΕΞΑΝΔΡΑΣ,37.990644262,23.737234228,0
060036,060036,ΒΡΑΙΛΑ,Επί της ΛΕΩΦ.ΑΛΕΞΑΝΔΡΑΣ,37.990368720,23.738966232,0
060037,060037,ΜΟΥΣΤΟΞΥΔΗ,Επί της ΜΟΥΣΤΟΞΥΔΗ,37.990741746,23.740547891,0
060038,060038,1η ΒΑΛΤΙΝΩΝ,Επί της ΒΑΛΤΙΝΩΝ,37.992699975,23.741657082,0
060039,060039,2η ΒΑΛΤΙΝΩΝ,Επί της ΒΑΛΤΙΝΩΝ,37.992994182,23.744309618,0
060040,060040,ΓΕΝΝΑΔΙΟΥ,Επί της ΓΕΝΝΑΔΙΟΥ,37.992618781,23.745757279,0
060041,060041,ΜΠΟΥΚΟΥΒΑΛΑ,Επί της ΜΟΜΦΕΡΑΤΟΥ,37.990247761,23.749660252,0
060042,060042,ΑΒΕΡΩΦ-ΙΚΑ,Επί της ΜΟΜΦΕΡΑΤΟΥ,37.989908994,23.751415190,0
060043,060043,ΚΕΔΡΙΝΟΥ,Επί της ΚΕΔΡΗΝΟΥ,37.991345362,23.752993338,0
060044,060044,ΠΑΠΑΣΤΡΑΤΟΥ,Επί της ΚΕΔΡΗΝΟΥ,37.990863930,23.755511782,0
060045,060045,ΑΓ.ΔΗΜΗΤΡΙΟΣ,Επί της ΠΑΝΟΡΜΟΥ,37.990185916,23.758884960,0
060046,060046,ΠΑΛΑΙΟ ΤΕΡΜΑ,Επί της ΠΑΝΟΡΜΟΥ,37.992209290,23.761087723,0
060047,060047,ΛΥΚΟΥΔΗ,Επί της ΑΓ.ΛΑΥΡΑΣ,38.020391238,23.739326887,0
060048,060048,ΖΑΠΠΕΙΟ,Επί της ΛΕΩΦ.ΑΜΑΛΙΑΣ,37.972730256,23.734804656,0
060049,060049,ΠΑΛΑΙΟ ΤΕΡΜΑ,Επί της ΠΑΝΟΡΜΟΥ,37.992189828,23.760381694,0
060050,060050,ΑΓ.ΔΗΜΗΤΡΙΟΣ,Επί της ΠΑΝΟΡΜΟΥ,37.990889124,23.758985154,0
060051,060051,ΠΑΠΑΣΤΡΑΤΟΥ,Επί της ΚΕΔΡΗΝΟΥ,37.991169536,23.755112173,0
060053,060053,ΑΦΕΤΗΡΙΑ,Επί της ΔΗΜΗΤΣΑΝΑΣ,37.990126960,23.756516395,0
060054,060054,1η ΡΑΓΚΑΒΗ-ΙΚΑ,Επί της ΡΑΓΚΑΒΗ,37.990711469,23.751571919,0
060055,060055,ΑΓ.ΕΛΕΥΘΕΡΙΟΣ,Επί της ΡΑΓΚΑΒΗ,37.991531254,23.747161814,0
060056,060056,ΒΑΛΤΙΝΩΝ,Επί της ΒΑΛΤΙΝΩΝ,37.993051296,23.745710231,0
060057,060057,ΒΡΑΙΛΑ,Επί της ΒΡΑΙΛΑ,37.991389207,23.739885081,0
060058,060058,ΠΑΡΚΟ,Επί της ΛΕΩΦ.ΑΛΕΞΑΝΔΡΑΣ,37.990862854,23.738258402,0
060059,060059,ΜΕΤΣΟΒΟΥ,Επί της ΣΠΥΡ.ΤΡΙΚΟΥΠΗ,37.990414627,23.735310425,0
060060,060060,ΠΛ.ΕΞΑΡΧΕΙΩΝ,Επί της ΣΠΥΡ.ΤΡΙΚΟΥΠΗ,37.987357654,23.734592586,0
060061,060061,ΛΙΟΣΙΩΝ,Επί της ΝΕΟΦ.ΜΕΤΑΞΑ,37.990743995,23.721814047,0
060062,060062,ΜΗΤΣΑΚΗ,Επί της ΑΓ.ΛΑΥΡΑΣ,38.017958078,23.739460823,0
060063,060063,ΜΙΧ.ΒΟΔΑ,Επί της ΗΠΕΙΡΟΥ,37.990579159,23.724536478,0
060064,060064,ΗΠΕΙΡΟΥ,Επί της ΗΠΕΙΡΟΥ,37.990458979,23.727110685,0
060065,060065,ΠΑΤΗΣΙΩΝ,Επί της ΗΠΕΙΡΟΥ,37.990006421,23.730187185,0
060066,060066,ΑΙΓΥΠΤΟΥ,Επί της ΜΑΥΡΟΜΜΑΤΑΙΩΝ,37.990939447,23.732245065,0
060067,060067,ΠΕΔΙΟΝ ΑΡΕΩΣ,Επί της ΛΕΩΦ.ΑΛΕΞΑΝΔΡΑΣ,37.991222307,23.733770085,0
060068,060068,ΣΟΝΙΑ,Επί της ΛΕΩΦ.ΑΛΕΞΑΝΔΡΑΣ,37.989977366,23.741324983,0
060069,060069,ΠΑΝΑΘΗΝΑΙΑ,Επί της ΛΕΩΦ.ΑΛΕΞΑΝΔΡΑΣ,37.989354379,23.744948598,0
060070,060070,ΠΑΝΑΘΗΝΑΙΑ,Επί της ΛΕΩΦ.ΑΛΕΞΑΝΔΡΑΣ,37.989122609,23.746133763,0
060071,060071,ΙΠΠΟΚΡΑΤΟΥΣ,Επί της ΛΕΩΦ.ΑΛΕΞΑΝΔΡΑΣ,37.988766577,23.748219003,0
060072,060072,ΙΚΑ,Επί της ΛΕΩΦ.ΑΛΕΞΑΝΔΡΑΣ,37.988026884,23.752161756,0
060073,060073,ΣΤ.ΑΜΠΕΛΟΚΗΠΟΙ,Επί της ΛΕΩΦ.ΑΛΕΞΑΝΔΡΑΣ,37.987198533,23.756879095,0
060074,060074,ΥΓΕΙΟΝΟΜΙΚΟ,Επί της ΛΕΩΦ.ΑΛΕΞΑΝΔΡΑΣ,37.986725354,23.759067101,0
060075,060075,ΑΚΑΔΗΜΙΑΣ,Επί της ΑΚΑΔΗΜΙΑΣ,37.981273537,23.734398148,0
060076,060076,ΑΚΑΔΗΜΙΑΣ,Επί της ΑΚΑΔΗΜΙΑΣ,37.981111590,23.734523987,0
060080,060080,ΑΦΕΤΗΡΙΑ,Επί της ΠΑΝΕΠΙΣΤΗΜΙΟΥ,37.979127799,23.734098444,0
060083,060083,ΚΑΝΑΡΗ,Επί της ΚΑΝΑΡΗ,37.977029644,23.738945162,0
060084,060084,ΚΟΛΩΝΑΚΙ,Επί της ΠΛ.ΦΙΛΙΚΗΣ ΕΤΑΙΡΙΑΣ,37.977223292,23.740925686,0
060085,060085,ΛΟΥΚΙΑΝΟΥ,Επί της ΠΑΤΡ.ΙΩΑΚΕΙΜ,37.977887734,23.743895192,0
060086,060086,ΕΥΑΓΓΕΛΙΣΜΟΣ,Επί της ΙΩΑΝΝΟΥ ΓΕΝΝΑΔΙΟΥ,37.978726934,23.748537966,0
060087,060087,ΠΑΛΑΙΟ ΤΕΡΜΑ,Επί της ΔΕΙΝΟΚΡΑΤΟΥΣ,37.980611873,23.749123648,0
060088,060088,ΝΑΥΤΙΚΟ,Επί της ΔΕΙΝΟΚΡΑΤΟΥΣ,37.981698461,23.751499823,0
060089,060089,ΔΟΡΥΛΑΙΟΥ,Επί της ΤΙΜ.ΦΙΛΗΜΟΝΟΣ,37.983486543,23.753179104,0
060090,060090,1η ΛΥΚΑΒΗΤΤΟΥ,Επί της ΣΚΟΠΕΤΕΑ,37.983519599,23.751755588,0
060091,060091,2η ΛΥΚΑΒΗΤΤΟΥ,Επί της ΑΘΗΝΑΙΩΝ ΕΦΗΒΩΝ,37.982227853,23.750382108,0
060092,060092,3η ΛΥΚΑΒΗΤΤΟΥ,Επί της ΚΛΕΟΜΕΝΟΥΣ,37.980969195,23.747630755,0
060093,060093,4η ΛΥΚΑΒΗΤΤΟΥ,Επί της ΚΛΕΟΜΕΝΟΥΣ,37.979960429,23.743774123,0
060094,060094,5η ΛΥΚΑΒΗΤΤΟΥ,Επί της ΡΟΓΚΑΚΟΥ,37.980135478,23.741393691,0
060095,060095,6η ΛΥΚΑΒΗΤΤΟΥ,Επί της ΡΟΓΚΑΚΟΥ,37.981449666,23.740626156,0
060096,060096,7η ΛΥΚΑΒΗΤΤΟΥ,Επί της ΣΑΡΑΝΤΑΠΗΧΟΥ,37.983146601,23.741770288,0
060097,060097,8η ΛΥΚΑΒΗΤΤΟΥ,Επί της ΣΑΡΑΝΤΑΠΗΧΟΥ,37.984259408,23.743702238,0
060098,060098,9η ΛΥΚΑΒΗΤΤΟΥ,Επί της ΣΑΡΑΝΤΑΠΗΧΟΥ,37.985789106,23.746714628,0
060099,060099,10η ΛΥΚΑΒΗΤΤΟΥ,Επί της ΣΑΡΑΝΤΑΠΗΧΟΥ,37.986540223,23.748135509,0
060100,060100,11η ΛΥΚΑΒΗΤΤΟΥ,Επί της ΑΡΜΑΤΩΛΩΝ ΚΑΙ ΚΛΕΦΤΩΝ,37.987283909,23.750308041,0
060102,060102,ΤΕΡΜΑ,Επί της ΕΛΕΝΑΣ ΒΕΝΙΖΕΛΟΥ,37.985329057,23.755040485,0
060103,060103,ΔΟΡΥΛΑΙΟΥ,Επί της ΓΕΛΩΝΟΣ,37.983017973,23.753226222,0
060104,060104,ΝΑΥΤΙΚΟ,Επί της ΔΕΙΝΟΚΡΑΤΟΥΣ,37.981959808,23.751487555,0
060105,060105,ΠΑΛ.ΤΕΡΜΑ,Επί της ΔΕΙΝΟΚΡΑΤΟΥΣ,37.980845963,23.749008983,0
060106,060106,ΕΥΑΓΓΕΛΙΣΜΟΣ,Επί της ΣΟΥΗΔΙΑΣ,37.979934795,23.748602165,0
060107,060107,ΜΑΡΑΣΛΕΙΟΣ,Επί της ΣΟΥΗΔΙΑΣ,37.979443461,23.746440386,0
060108,060108,ΠΛΟΥΤΑΡΧΟΥ,Επί της ΠΑΤΡ.ΙΩΑΚΕΙΜ,37.978567548,23.745669119,0
060109,060109,ΛΟΥΚΙΑΝΟΥ,Επί της ΠΑΤΡ.ΙΩΑΚΕΙΜ,37.977948986,23.743052387,0
060110,060110,ΠΛ.ΚΟΛΩΝΑΚΙΟΥ,Επί της ΠΛ.ΦΙΛΙΚΗΣ ΕΤΑΙΡΙΑΣ,37.977394360,23.740845381,0
060111,060111,ΣΤ.ΛΑΡΙΣΗΣ,Επί της ΔΗΛΗΓΙΑΝΝΗ,37.991913955,23.721092152,0
060112,060112,ΜΟΥΣΕΙΟ,Επί της ΠΑΤΗΣΙΩΝ,37.990369227,23.731188026,0
060114,060114,ΣΤ.ΜΕΤΑΞΟΥΡΓΕΙΟΥ,Επί της ΠΛ.ΑΓ.ΚΩΝΣΤΑΝΤΙΝΟΥ,37.985794179,23.721069767,0
060115,060115,ΒΙΒΛΙΟΘΗΚΗ,Επί της ΠΑΝΕΠΙΣΤΗΜΙΟΥ,37.980846015,23.732668892,0
060116,060116,ΡΕΞ,Επί της ΠΑΝΕΠΙΣΤΗΜΙΟΥ,37.982726028,23.731056489,0
060117,060117,ΟΜΟΝΟΙΑ,Επί της ΠΑΝΕΠΙΣΤΗΜΙΟΥ,37.983589612,23.730335941,0
060118,060118,ΠΛ.ΛΑΥΡΙΟΥ,Επί της 3ης ΣΕΠΤΕΜΒΡΙΟΥ,37.985676543,23.728574618,0
060120,060120,ΑΦΕΤΗΡΙΑ-ΣΤ.ΛΑΡΙΣΗΣ,Επί της ΔΗΛΗΓΙΑΝΝΗ,37.992697877,23.721009463,0
060121,060121,ΣΤ.ΠΑΝΕΠΙΣΤΗΜΙΟ,Επί της ΠΑΝΕΠΙΣΤΗΜΙΟΥ,37.980512827,23.732795355,0
060122,060122,ΣΤ.ΣΥΝΤΑΓΜΑΤΟΣ,Επί της ΠΛ.ΣΥΝΤΑΓΜΑΤΟΣ,37.975084595,23.735684288,0
060124,060124,ΗΠΕΙΡΟΥ,Επί της ΛΙΟΣΙΩΝ,37.991361560,23.723804692,0
060125,060125,ΠΑΙΩΝΙΟΥ,Επί της ΛΙΟΣΙΩΝ,37.993964159,23.722906604,0
060126,060126,ΠΛ.ΑΤΤΙΚΗΣ,Επί της ΛΙΟΣΙΩΝ,37.997180370,23.722325038,0
060127,060127,ΣΤΑΘΜΟΣ ΑΤΤΙΚΗΣ,Επί της ΛΙΟΣΙΩΝ,37.999163794,23.722579522,0
060128,060128,ΑΓ.ΜΕΛΕΤΙΟΥ,Επί της ΛΙΟΣΙΩΝ,38.002137329,23.722283567,0
060129,060129,ΘΥΜΑΡΑΚΙΑ,Επί της ΛΙΟΣΙΩΝ,38.004390219,23.722149776,0
060130,060130,ΙΚΑ,Επί της ΛΙΟΣΙΩΝ,38.007049757,23.722470075,0
060131,060131,ΣΤ.ΥΠΕΑΡ/ΚΩΝ ΛΙΟΣΙΩΝ,Επί της ΛΙΟΣΙΩΝ,38.010264124,23.721113776,0
060132,060132,ΒΡΕΤΤΟΥ,Επί της ΛΙΟΣΙΩΝ,38.012082694,23.720263905,0
060133,060133,ΤΡΕΙΣ ΓΕΦΥΡΕΣ,Επί της ΛΙΟΣΙΩΝ,38.014523189,23.719434404,0
060134,060134,ΠΛΑΤΕΙΑ ΟΜΟΝΟΙΑΣ,Επί της ΑΘΗΝΑΣ,37.983313564,23.727877316,0
060135,060135,ΓΕΦΥΡΕΣ,Επί της ΝΙΡΒΑΝΑ,38.014824943,23.721255986,0
060137,060137,ΖΑΧΑΡΟΠΛΑΣΤΕΙΟ,Επί της ΚΟΥΡΤΙΔΟΥ,38.016705290,23.723664046,0
060138,060138,ΒΡΕΤΤΟΥ,Επί της ΑΥΛΩΝΟΣ ΕΜΠ.ΚΕΝΤΡΟΥ ΝΕΟΤ.,38.010899828,23.719345691,0
060139,060139,ΖΑΧΑΡΟΠΛΑΣΤΕΙΟ,Επί της ΚΟΥΡΤΙΔΟΥ,38.016876103,23.723481126,0
060140,060140,ΜΟΥΣΕΙΟ ΟΣΕ,Επί της ΣΙΩΚΟΥ,38.009433086,23.720330929,0
060141,060141,ΓΕΦΥΡΕΣ,Επί της ΡΕΓΓΟΥΚΟΥ,38.014353522,23.720095787,0
060144,060144,ΙΚΑ,Επί της ΛΙΟΣΙΩΝ,38.006228764,23.722120056,0
060145,060145,ΘΥΜΑΡΑΚΙΑ,Επί της ΛΙΟΣΙΩΝ,38.003469680,23.721629295,0
060146,060146,ΣΤΑΘΜΟΣ ΑΤΤΙΚΗΣ,Επί της ΛΙΟΣΙΩΝ,37.999406170,23.722168580,0
060147,060147,ΠΛ.ΑΤΤΙΚΗΣ,Επί της ΛΙΟΣΙΩΝ,37.997324197,23.722165044,0
060150,060150,ΠΛ.ΒΑΘΗ,Επί της ΛΙΟΣΙΩΝ,37.988399827,23.725296234,0
060152,060152,ΑΦΕΤΗΡΙΑ,Επί της ΦΑΒΙΕΡΟΥ,37.986552049,23.725234797,0
060153,060153,ΣΟΥΡΜΕΛΗ,Επί της ΣΟΥΡΜΕΛΗ,37.989258508,23.726352127,0
060154,060154,ΑΓ.ΒΑΡΒΑΡΑ,Επί της ΑΓ.ΛΑΥΡΑΣ,38.023504874,23.737173894,0
060155,060155,ΣΤ.ΕΥΑΓΓΕΛΙΣΜΟΥ,Επί της ΛΕΩΦ.ΒΑΣ.ΣΟΦΙΑΣ,37.976200420,23.747180253,0
060156,060156,ΞΑΝΘΙΠΠΗΣ,Επί της ΣΕΠΟΛΙΩΝ,37.997088762,23.721698970,0
060157,060157,ΣΙΔΕΡΑ,Επί της ΣΕΠΟΛΙΩΝ,37.999006264,23.720757775,0
060158,060158,ΑΓ.ΜΕΛΕΤΙΟΥ,Επί της ΣΕΠΟΛΙΩΝ,38.001554135,23.719597722,0
060159,060159,ΧΡΙΣΤΟΜΑΝΟΥ,Επί της ΑΥΛΩΝΟΣ,38.003708289,23.719635081,0
060160,060160,ΠΑΙΔΙΚΗ ΧΑΡΑ,Επί της ΔΥΡΡΑΧΙΟΥ,38.005793929,23.717405958,0
060161,060161,ΡΟΣΙΝΙΟΛ,Επί της ΔΥΡΡΑΧΙΟΥ,38.007529874,23.715941254,0
060162,060162,ΣΤ.ΜΕΓ.ΜΟΥΣΙΚΗΣ,Επί της ΛΕΩΦ.ΒΑΣ.ΣΟΦΙΑΣ,37.978690896,23.752796637,0
060163,060163,ΠΑΙΔΙΚΗ ΧΑΡΑ,Επί της ΔΥΡΡΑΧΙΟΥ,38.005433063,23.717259265,0
060164,060164,ΧΡΙΣΤΟΜΑΝΟΥ,Επί της ΔΥΡΡΑΧΙΟΥ,38.004361943,23.717844291,0
060165,060165,ΑΓ.ΜΕΛΕΤΙΟΣ,Επί της ΒΟΡ.ΗΠΕΙΡΟΥ,38.001371704,23.718687217,0
060166,060166,ΣΙΔΕΡΑ,Επί της ΕΥΑΛΚΙΔΟΥ,37.999679945,23.719798483,0
060167,060167,ΞΑΝΘΙΠΠΗΣ,Επί της ΚΩΝΣΤΑΝΤΙΝΟΥΠΟΛΕΩΣ,37.997806865,23.720466197,0
060168,060168,ΙΟΥΛΙΑΝΟΥ,Επί της ΛΙΟΣΙΩΝ,37.991117761,23.723612004,0
060169,060169,ΠΛ.ΑΤΤΙΚΗΣ,Επί της ΚΟΝΙΤΣΗΣ,37.996041745,23.721053744,0
060171,060171,ΣΤ.ΑΜΠΕΛΟΚΗΠΩΝ,Επί της ΛΕΩΦ.ΑΛΕΞΑΝΔΡΑΣ,37.987280377,23.757231847,0
060172,060172,ΣΤ.ΠΑΝΟΡΜΟΥ,Επί της ΠΑΝΟΡΜΟΥ,37.993160352,23.763419328,0
060175,060175,ΣΤΑΘΜΟΣ ΜΕΤΑΞΟΥΡΓΕΙΟΥ,Επί της ΔΗΛΗΓΙΑΝΝΗ,37.986965245,23.720814803,0
060176,060176,ΙΚΑ ΠΑΤΗΣΙΩΝ,Επί της ΔΡΟΣΟΠΟΥΛΟΥ,38.008000468,23.736112931,0
060177,060177,ΤΕΛΩΝΕΙΟ ΑΘΗΝΩΝ,Επί της ΣΙΔΗΡΟΔΡΟΜΩΝ,37.988385277,23.719135389,0
060178,060178,ΣΙΔΕΡΑ,Επί της ΚΩΝΣΤΑΝΤΙΝΟΥΠΟΛΕΩΣ,37.993596771,23.720003845,0
060179,060179,ΠΛ.ΚΟΛΩΝΟΥ,Επί της ΑΝΔΡΙΑΝΟΥΠΟΛΕΩΣ,37.994195072,23.717678239,0
060180,060180,ΚΑΛΛΙΠΟΛΕΩΣ,Επί της ΙΩΑΝΝΙΝΩΝ,37.996480501,23.716086376,0
060181,060181,ΞΑΝΘΙΠΠΗΣ,Επί της ΙΩΑΝΝΙΝΩΝ,37.997894759,23.715773409,0
060182,060182,ΠΑΙΔΙΚΗ ΧΑΡΑ,Επί της ΙΩΑΝΝΙΝΩΝ,37.999623939,23.715242808,0
060184,060184,ΣΧΟΛΕΙΟ,Επί της ΧΑΤΖΗΑΠΟΣΤΟΛΟΥ,38.002922734,23.711585179,0
060185,060185,ΣΤ.ΚΑΤΕΧΑΚΗ,Επί της ΜΕΣΟΓΕΙΩΝ,37.993167247,23.776151910,0
060186,060186,ΠΝΕΥΜΑΤΙΚΟ ΚΕΝΤΡΟ,Επί της ΚΡΕΟΝΤΟΣ,38.001080077,23.713619806,0
060187,060187,ΜΕΤΡΟ,Επί της ΙΩΑΝΝΙΝΩΝ,38.001559829,23.714472192,0
060188,060188,ΠΑΙΔΙΚΗ ΧΑΡΑ,Επί της ΙΩΑΝΝΙΝΩΝ,37.999506084,23.714958522,0
060189,060189,ΞΑΝΘΙΠΠΗΣ,Επί της ΙΩΑΝΝΙΝΩΝ,37.997776878,23.715477739,0
060190,060190,ΗΛΕΚΤΡΑΣ,Επί της ΙΩΑΝΝΙΝΩΝ,37.995677871,23.715884466,0
060191,060191,ΠΛ.ΚΟΛΩΝΟΥ,Επί της ΙΩΑΝΝΙΝΩΝ,37.993606394,23.716496061,0
060192,060192,ΣΙΔΕΡΑ,Επί της ΜΑΡΩΝΕΙΑΣ,37.993018271,23.719299945,0
060193,060193,ΓΕΦΥΡΑ,Επί της ΣΙΔΗΡΟΔΡΟΜΩΝ,37.988303400,23.718816838,0
060195,060195,ΠΕΡΟΚΕ,Επί της ΔΗΛΗΓΙΑΝΝΗ,37.986478664,23.720862198,0
060201,060201,ΣΤ.ΛΑΡΙΣΗΣ(ΑΦΕΤΗΡΙΑ),Επί της ΔΗΛΗΓΙΑΝΝΗ,37.991760441,23.720967459,0
060203,060203,ΜΕΓ.ΑΛΕΞΑΝΔΡΟΥ,Επί της ΚΟΛΩΝΟΥ,37.983830528,23.721555466,0
060204,060204,ΠΛΑΤΕΙΑ ΜΕΤΑΞΟΥΡΓΕΙΟΥ,Επί της ΛΕΝΟΡΜΑΝ,37.986095436,23.718893590,0
060205,060205,ΠΑΛΑΜΗΔΙΟΥ,Επί της ΛΕΝΟΡΜΑΝ,37.989442335,23.716443757,0
060206,060206,ΣΧΟΛΕΙΑ,Επί της ΛΕΝΟΡΜΑΝ,37.990827962,23.715470413,0
060207,060207,ΑΓ.ΚΩΝΣΤΑΝΤΙΝΟΥ,Επί της ΛΕΝΟΡΜΑΝ,37.992582524,23.714256441,0
060208,060208,ΑΡΜΟΝΙΑ,Επί της ΛΕΝΟΡΜΑΝ,37.994400661,23.713247164,0
060209,060209,ΚΑΔΜΟΥ,Επί της ΛΕΝΟΡΜΑΝ,37.996632064,23.711700928,0
060210,060210,ΚΑΠΝΕΡΓΟΣΤΑΣΙΟ,Επί της ΛΕΝΟΡΜΑΝ,37.998474014,23.709393030,0
060211,060211,ΠΑΠΑΘΑΝΑΣΙΟΥ,Επί της ΛΕΝΟΡΜΑΝ,38.000917841,23.706308109,0
060212,060212,ΟΛΟΦΥΤΟΥ,Επί της ΤΡΑΛΛΕΩΝ,38.024400442,23.742742146,0
060213,060213,ΠΑΝΑΓΙΤΣΑ,Επί της ΛΕΝΟΡΜΑΝ,38.000835246,23.705716163,0
060214,060214,ΠΑΠΑΘΑΝΑΣΙΟΥ,Επί της ΛΕΝΟΡΜΑΝ,37.999406738,23.707532831,0
060215,060215,ΚΑΠΝΕΡΓΟΣΤΑΣΙΟ,Επί της ΛΕΝΟΡΜΑΝ,37.997564740,23.709806637,0
060216,060216,ΚΑΔΜΟΥ,Επί της ΛΕΝΟΡΜΑΝ,37.996765018,23.710789265,0
060217,060217,ΑΡΜΟΝΙΑ,Επί της ΛΕΝΟΡΜΑΝ,37.995029384,23.712356374,0
060218,060218,ΑΓ.ΚΩΝΣΤΑΝΤΙΝΟΥ,Επί της ΛΕΝΟΡΜΑΝ,37.992104737,23.714212740,0
060219,060219,ΚΙΚΙΖΑ,Επί της ΛΕΝΟΡΜΑΝ,37.989954276,23.715701552,0
060220,060220,ΑΛΑΜΑΝΑΣ,Επί της ΠΑΛΑΜΗΔΙΟΥ,37.988675783,23.716253111,0
060221,060221,ΑΓ.ΓΕΩΡΓΙΟΥ,Επί της ΠΛΑΤΩΝΟΣ,37.987532440,23.713068916,0
060222,060222,ΚΡΙΘΑΡΗ,Επί της ΠΛΑΤΩΝΟΣ,37.989647432,23.711830756,0
060223,060223,ΜΑΥΡΟΜΑΤΗ,Επί της ΠΛΑΤΩΝΟΣ,37.991681211,23.710558678,0
060224,060224,ΠΑΛΑΙΟ ΤΕΡΜΑ,Επί της ΚΡΑΤΗΛΟΥ,37.992425082,23.708858853,0
060225,060225,ΚΡΑΤΥΛΟΥ,Επί της ΚΡΑΤΥΛΟΥ,37.992729539,23.708060444,0
060226,060226,ΚΕΤΕ,Επί της ΔΡΑΚΟΝΤΟΣ,37.994152031,23.703840924,0
060227,060227,ΑΝΤΙΓΟΝΗΣ,Επί της ΔΡΑΚΟΝΤΟΣ,37.996263024,23.701064862,0
060228,060228,ΣΤΑΘ.ΥΠΕΡΑΣ.ΛΕΩΦ.ΚΗΦΙΣΟΥ,Επί της ΕΝΤΟΣ ΥΠΕΡΑΣΤΙΚΟΥ ΣΤΑΘΜΟΥ,37.997359562,23.699875917,0
060229,060229,ΑΝΤΙΓΟΝΗΣ,Επί της ΔΡΑΚΟΝΤΟΣ,37.995381742,23.701842894,0
060230,060230,ΚΕΤΕ,Επί της ΔΡΑΚΟΝΤΟΣ,37.992824910,23.706545374,0
060231,060231,ΚΡΑΤΥΛΟΥ,Επί της ΚΡΑΤΥΛΟΥ,37.992638761,23.707798865,0
060232,060232,ΠΑΛΑΙΟ.ΤΕΡΜΑ,Επί της ΠΛΑΤΩΝΟΣ,37.992796238,23.709517929,0
060233,060233,ΜΑΥΡΟΜΑΤΗ,Επί της ΠΛΑΤΩΝΟΣ,37.991914224,23.710022502,0
060234,060234,ΚΡΙΘΑΡΗ,Επί της ΠΛΑΤΩΝΟΣ,37.989772606,23.711420291,0
060235,060235,ΑΓ.ΓΕΩΡΓΙΟΣ,Επί της ΠΛΑΤΩΝΟΣ,37.987351518,23.712796313,0
060236,060236,ΑΛΑΜΑΝΑΣ,Επί της ΠΑΛΑΜΗΔΙΟΥ,37.988142793,23.715742706,0
060238,060238,ΜΕΤΑΞΟΥΡΓΕΙΟ,Επί της ΛΕΝΟΡΜΑΝ,37.985617514,23.718792925,0
060239,060239,ΣΙΓΑΝΕΟΥ,Επί της ΤΡΑΛΛΕΩΝ,38.023431907,23.744967247,0
060240,060240,ΠΕΙΡΑΙΩΣ,Επί της ΚΟΛΟΚΥΝΘΟΥΣ,37.982215811,23.720958055,0
060241,060241,ΑΓΗΣΙΛΑΟΥ,Επί της ΑΓΗΣΙΛΑΟΥ,37.982201342,23.722461197,0
060242,060242,ΜΕΤΑΞΟΥΡΓΕΙΟ,Επί της ΑΧΙΛΛΕΩΣ,37.985215009,23.720081248,0
060243,060243,ΑΧΙΛΛΕΩΣ,Επί της ΑΧΙΛΛΕΩΣ,37.984695074,23.717486893,0
060244,060244,ΜΟΥΣΕΙΟ ΑΚΡΟΠΟΛΗΣ,Επί της ΧΑΤΖΗΧΡΗΣΤΟΥ,37.968163220,23.728001551,0
060245,060245,ΣΠΥΡΟΥ ΠΑΤΣΗ,Επί της ΛΕΩΦ.ΑΘΗΝΩΝ,37.985418520,23.711061556,0
060246,060246,ΣΧΟΛΕΙΟ,Επί της ΜΑΡΑΘΩΝΟΜΑΧΩΝ,37.987526274,23.710552225,0
060247,060247,ΤΕΡΜΑ,Επί της ΜΑΡΑΘΩΝΟΜΑΧΩΝ,37.989387840,23.708893632,0
060248,060248,ΣΧΟΛΕΙΟ,Επί της ΜΑΡΑΘΩΝΟΜΑΧΩΝ,37.987570020,23.710016824,0
060249,060249,ΓΑΡΔΕΝΙΑ,Επί της ΛΕΩΦ.ΑΘΗΝΩΝ,37.987322000,23.708127423,0
060250,060250,ΣΑΡΑΚΑΚΗ,Επί της ΛΕΩΦ.ΑΘΗΝΩΝ,37.988489265,23.706357659,0
060251,060251,ΣΤΑΚΟΡ,Επί της ΛΕΩΦ.ΑΘΗΝΩΝ,37.990141674,23.703982317,0
060252,060252,ΠΑΛΙΑΤΖΙΔΙΚΑ,Επί της ΛΕΩΦ.ΑΘΗΝΩΝ,37.992287682,23.700796279,0
060253,060253,ΠΛΑΤΕΙΑ,Επί της ΤΡΑΛΛΕΩΝ,38.022391277,23.747215324,0
060255,060255,ΣΥΡΑΚΟΥΣΩΝ,Επί της Ι.ΦΩΚΑ,38.023572850,23.747632822,0
060256,060256,ΠΑΛΙΑΤΖΙΔΙΚΑ,Επί της ΛΕΩΦ.ΑΘΗΝΩΝ,37.992770128,23.699131576,0
060257,060257,ΑΦΕΤΗΡΙΑ,Επί της ΠΛ.ΚΟΥΜΟΥΝΔΟΥΡΟΥ,37.980620658,23.721009642,0
060258,060258,ΤΡΑΠΕΖΑ,Επί της ΛΕΩΦ.ΑΘΗΝΩΝ,37.989582454,23.703813742,0
060259,060259,ΣΑΡΑΚΑΚΗ,Επί της ΛΕΩΦ.ΑΘΗΝΩΝ,37.988047214,23.706188602,0
060260,060260,ΓΑΡΔΕΝΙΑ,Επί της ΛΕΩΦ.ΑΘΗΝΩΝ,37.986709132,23.708129851,0
060261,060261,ΣΠ.ΠΑΤΣΗ,Επί της ΛΕΩΦ.ΑΘΗΝΩΝ,37.984797199,23.711291741,0
060262,060262,ΘΥΣΣΟΥ,Επί της Ι.ΦΩΚΑ,38.024801545,23.744825776,0
060263,060263,ΘΕΡΜΟΠΥΛΩΝ,Επί της ΘΕΡΜΟΠΥΛΩΝ,37.983881651,23.716544867,0
060264,060264,ΜΕΤΑΞΟΥΡΓΕΙΟ,Επί της ΑΧΙΛΛΕΩΣ,37.984880940,23.719831993,0
060265,060265,ΑΦΕΤΗΡΙΑ,Επί της ΜΑΡΝΗ,37.988987377,23.729928991,0
060266,060266,ΣΤΟΥΡΝΑΡΗ,Επί της ΣΤΟΥΡΝΑΡΗ,37.987947289,23.728361271,0
060267,060267,ΑΦΕΤΗΡΙΑ,Επί της ΠΛ.ΚΟΥΜΟΥΝΔΟΥΡΟΥ,37.980368786,23.721215557,0
060268,060268,ΣΑΜΗΣ,Επί της ΣΑΜΗΣ,38.025030310,23.742272804,0
060269,060269,ΖΗΝΩΝΟΣ,Επί της ΔΕΛΗΓΙΩΡΓΗ,37.984337396,23.722464540,0
060270,060270,ΑΓΗΣΙΛΑΟΥ,Επί της ΔΕΛΗΓΙΩΡΓΗ,37.982960775,23.723460406,0
060271,060271,ΑΦΕΤΗΡΙΑ,Επί της ΠΛ.ΚΟΥΜΟΥΝΔΟΥΡΟΥ,37.980776382,23.722068025,0
060272,060272,ΝΙΚΗΦΟΡΟΥ,Επί της ΝΙΚΗΦΟΡΟΥ,37.984395197,23.724047166,0
060273,060273,ΜΑΒΙΛΗ,Επί της ΜΑΒΙΛΗ,38.022105529,23.736119324,0
060274,060274,ΤΕΡΜΑ(ΟΜΟΝΟΙΑ),Επί της ΑΘΗΝΑΣ,37.983006550,23.727627932,0
060275,060275,ΔΗΜΑΡΧΕΙΟ,Επί της ΑΘΗΝΑΣ,37.982582686,23.727515628,0
060278,060278,ΑΦΕΤΗΡΙΑ,Επί της ΑΘΗΝΑΣ,37.981311197,23.727224270,0
060279,060279,ΜΕΝΑΝΔΡΟΥ,Επί της ΣΟΦΟΚΛΕΟΥΣ,37.981504442,23.725060040,0
060280,060280,ΑΦΕΤΗΡΙΑ,Επί της ΜΕΝΑΝΔΡΟΥ,37.983126609,23.724997052,0
060281,060281,ΙΚΑ,Επί της ΠΕΙΡΑΙΩΣ,37.981786942,23.722542467,0
060282,060282,ΘΕΡΜΟΠΥΛΩΝ,Επί της ΠΕΙΡΑΙΩΣ,37.980599953,23.719882429,0
060283,060283,ΠΑΛΑΙΑ ΑΓΟΡΑ,Επί της ΠΕΙΡΑΙΩΣ,37.978236740,23.715359618,0
060284,060284,ΦΩΤΑΕΡΙΟ,Επί της ΠΕΙΡΑΙΩΣ,37.977014122,23.712939074,0
060285,060285,ΚΑΜΠΑ,Επί της ΠΕΙΡΑΙΩΣ,37.975258101,23.709871705,0
060286,060286,ΚΟΛΥΜΒΗΤΗΡΙΟ,Επί της ΠΕΙΡΑΙΩΣ,37.973467253,23.707328362,0
060287,060287,ΥΠΟΥΡΓΕΙΟ,Επί της ΠΕΙΡΑΙΩΣ,37.971748396,23.704762084,0
060288,060288,ΕΛΟΥΛΟΥ,Επί της ΠΕΙΡΑΙΩΣ,37.970336579,23.702456544,0
060289,060289,ΕΡΓΩΝ,Επί της ΠΕΙΡΑΙΩΣ,37.969366489,23.700206221,0
060290,060290,ΕΡΓΩΝ,Επί της ΠΕΙΡΑΙΩΣ,37.969405407,23.701333182,0
060291,060291,ΕΛΟΥΛΟΥ,Επί της ΠΕΙΡΑΙΩΣ,37.970058018,23.702787838,0
060292,060292,ΥΠΟΥΡΓΕΙΟ,Επί της ΠΕΙΡΑΙΩΣ,37.971415380,23.704945583,0
060293,060293,ΚΟΛΥΜΒΗΤΗΡΙΟ,Επί της ΠΕΙΡΑΙΩΣ,37.974011270,23.708635565,0
060294,060294,ΚΑΜΠΑ,Επί της ΠΕΙΡΑΙΩΣ,37.975123751,23.710213812,0
060295,060295,ΦΩΤΑΕΡΙΟ,Επί της ΠΕΙΡΑΙΩΣ,37.976725324,23.712780792,0
060296,060296,ΠΑΛ.ΑΓΟΡΑ,Επί της ΠΕΙΡΑΙΩΣ,37.978436864,23.716121737,0
060297,060297,ΑΣΩΜΑΤΩΝ,Επί της ΠΕΙΡΑΙΩΣ,37.979894321,23.718780604,0
060298,060298,ΙΚΑ,Επί της ΠΕΙΡΑΙΩΣ,37.981018138,23.721395290,0
060299,060299,ΩΔΕΙΟ,Επί της ΠΕΙΡΑΙΩΣ,37.981906093,23.723384655,0
060300,060300,ΑΓΟΡΑ,Επί της ΑΘΗΝΑΣ,37.979462308,23.726684556,0
060301,060301,ΜΟΝΑΣΤΗΡΑΚΙ,Επί της ΑΘΗΝΑΣ,37.977090515,23.726078494,0
060305,060305,ΑΓΙΑ ΑΙΚΑΤΕΡΙΝΗ,Επί της ΣΙΤΑΚΗΣ,38.021862331,23.744346063,0
060306,060306,ΒΑΡΒΑΚΕΙΟ,Επί της ΜΟΥΣΩΝ,38.000494207,23.766630492,0
060307,060307,ΡΟΥΦ,Επί της Π.ΡΑΛΛΗ,37.975513475,23.703847511,0
060308,060308,ΨΥΓΕΙΑ,Επί της Π.ΡΑΛΛΗ,37.975783004,23.699952405,0
060309,060309,ΑΣΤΥ,Επί της Π.ΡΑΛΛΗ,37.975972882,23.693199699,0
060310,060310,ΑΜΑΞΟΣΤΑΣΙΟ Ε.ΘΕ.Λ,Επί της Π.ΡΑΛΛΗ,37.976226134,23.690101626,0
060311,060311,ΠΑΠΑΔΟΠΟΥΛΟΥ,Επί της Π.ΡΑΛΛΗ,37.976467561,23.685978831,0
060312,060312,ΣΧΟΛΕΙΟ,Επί της ΤΣΟΥΝΤΑ,38.021331556,23.728693810,0
060313,060313,ΑΧΙΛΛΕΩΣ,Επί της ΑΧΙΛΛΕΩΣ,37.984661616,23.718568825,0
060314,060314,ΠΑΛΑΙΑ ΑΓΟΡΑ,Επί της ΙΕΡΑΣ ΟΔΟΥ,37.980054781,23.714305021,0
060315,060315,ΣΙΔΕΡΑ,Επί της ΙΕΡΑΣ ΟΔΟΥ,37.980618787,23.712742845,0
060316,060316,ΣΠΥΡΟΥ ΠΑΤΣΗ,Επί της ΙΕΡΑΣ ΟΔΟΥ,37.981613621,23.710461580,0
060317,060317,ΓΕΩΠΟΝΙΚΗ ΣΧΟΛΗ,Επί της ΙΕΡΑΣ ΟΔΟΥ,37.983100374,23.706675201,0
060318,060318,ΕΒΓΑ,Επί της ΙΕΡΑΣ ΟΔΟΥ,37.984507326,23.703458359,0
060319,060319,ΙΕΡΗ ΕΛΙΑ,Επί της ΙΕΡΑΣ ΟΔΟΥ,37.986101598,23.699511824,0
060320,060320,ΑΓ.ΣΑΒΒΑΣ,Επί της ΙΕΡΑΣ ΟΔΟΥ,37.987131344,23.696888434,0
060321,060321,ΑΓ.ΣΑΒΒΑΣ,Επί της ΙΕΡΑΣ ΟΔΟΥ,37.986436922,23.696720476,0
060322,060322,ΙΕΡΗ ΕΛΙΑ,Επί της ΙΕΡΑΣ ΟΔΟΥ,37.985488992,23.699616810,0
060323,060323,ΕΒΓΑ,Επί της ΙΕΡΑΣ ΟΔΟΥ,37.983446600,23.704567187,0
060324,060324,ΓΕΩΠΟΝΙΚΗ ΣΧΟΛΗ,Επί της ΙΕΡΑΣ ΟΔΟΥ,37.982416425,23.707087857,0
060325,060325,ΣΙΔΕΡΑ,Επί της ΙΕΡΑΣ ΟΔΟΥ,37.980240139,23.712698774,0
060326,060326,ΠΑΛΑΙΑ ΑΓΟΡΑ,Επί της ΙΕΡΑΣ ΟΔΟΥ,37.979398782,23.715104625,0
060327,060327,ΣΠΥΡΟΥ ΠΑΤΣΗ,Επί της ΣΠΥΡΟΥ ΠΑΤΣΗ,37.981590843,23.708537279,0
060328,060328,ΑΓ.ΜΑΡΚΕΛΑ,Επί της ΣΠΥΡΟΥ ΠΑΤΣΗ,37.979623544,23.707531649,0
060329,060329,ΚΟΖΑΝΗΣ,Επί της ΚΟΖΑΝΗΣ,37.977951952,23.705841714,0
060330,060330,ΣΧΟΛΕΙΑ,Επί της ΟΡΦΕΩΣ,37.977167340,23.702064611,0
060331,060331,ΚΟΝΤΕΛΗΣ,Επί της ΟΡΦΕΩΣ,37.977961504,23.698930150,0
060332,060332,ΖΗΤΑ ΕΛΛΑΣ,Επί της ΟΡΦΕΩΣ,37.979251168,23.695748030,0
060333,060333,ΕΤΜΑ,Επί της ΟΡΦΕΩΣ,37.980011697,23.693604194,0
060334,060334,ΤΕΡΜΑ,Επί της ΟΡΦΕΩΣ,37.980440027,23.691962721,0
060335,060335,ΕΤΜΑ,Επί της ΟΡΦΕΩΣ,37.979804047,23.693468417,0
060336,060336,ΖΗΤΑ ΕΛΛΑΣ,Επί της ΟΡΦΕΩΣ,37.979088232,23.695475426,0
060337,060337,ΚΟΝΤΕΛΗΣ,Επί της ΟΡΦΕΩΣ,37.977976581,23.697780065,0
060338,060338,ΣΧΟΛΕΙΑ,Επί της ΟΡΦΕΩΣ,37.976630313,23.703546983,0
060339,060339,ΑΓ.ΜΑΡΚΕΛΑ,Επί της ΣΠΥΡΟΥ ΠΑΤΣΗ,37.980328660,23.708382856,0
060340,060340,ΑΚΤΑΙΟΥ,Επί της ΑΚΤΑΙΟΥ,37.976015634,23.717463232,0
060341,060341,ΣΤΑΘΜΟΣ ΗΣΑΠ ΘΗΣΕΙΟΥ,Επί της ΕΡΜΟΥ,37.977395269,23.721522848,0
060342,060342,ΠΛ.ΕΛΕΥΘΕΡΙΑΣ,Επί της ΠΛ.ΚΟΥΜΟΥΝΔΟΥΡΟΥ,37.980764592,23.720895229,0
060343,060343,ΙΚΑ,Επί της ΜΥΛΛΕΡΟΥ,37.981808370,23.720173897,0
060345,060345,ΜΑΡΑΘΩΝΟΣ,Επί της ΛΕΩΝΙΔΟΥ,37.982408259,23.718509108,0
060346,060346,ΣΑΛΑΜΙΝΟΣ,Επί της ΛΕΩΝΙΔΟΥ,37.981891637,23.717304062,0
060347,060347,ΜΥΚΑΛΗΣ,Επί της ΛΕΩΝΙΔΟΥ,37.980894626,23.714984974,0
060348,060348,ΑΓ.ΜΑΡΚΕΛΑ,Επί της ΑΓ.ΠΟΛΥΚΑΡΠΟΥ,37.979965803,23.707439198,0
060349,060349,ΑΜΑΞΟΣΤΑΣΙΟ ΒΟΤΑΝΙΚΟΥ,Επί της ΑΓ.ΠΟΛΥΚΑΡΠΟΥ,37.980218255,23.703874153,0
060350,060350,ΑΓ.ΠΟΛΥΚΑΡΠΟΣ,Επί της ΑΓ.ΠΟΛΥΚΑΡΠΟΥ,37.981088700,23.702367591,0
060351,060351,ΔΗΜΑΡΑΚΗ,Επί της ΑΓ.ΠΟΛΥΚΑΡΠΟΥ,37.982418573,23.700779419,0
060352,060352,ΣΟΦΤΕΞ,Επί της ΧΑΡΤΕΡΓΑΤΩΝ,37.983798886,23.701309016,0
060353,060353,ΣΟΦΤΕΞ,Επί της ΧΑΡΤΕΡΓΑΤΩΝ,37.983798047,23.700978788,0
060354,060354,ΔΗΜΑΡΑΚΗ,Επί της ΑΓ.ΠΟΛΥΚΑΡΠΟΥ,37.981725228,23.701032747,0
060355,060355,ΑΓ.ΠΟΛΥΚΑΡΠΟΥ,Επί της ΑΓ.ΠΟΛΥΚΑΡΠΟΥ,37.980127009,23.703430438,0
060356,060356,ΑΜΑΞΟΣΤΑΣΙΟ ΒΟΤΑΝΙΚΟΥ,Επί της ΑΓ.ΠΟΛΥΚΑΡΠΟΥ,37.979638079,23.706131036,0
060357,060357,ΛΑΙΣ,Επί της ΜΕΓ.ΑΛΕΞΑΝΔΡΟΥ,37.981197825,23.713651538,0
060358,060358,ΠΛΑΤΑΙΩΝ,Επί της ΜΕΓ.ΑΛΕΞΑΝΔΡΟΥ,37.982203847,23.715959195,0
060359,060359,ΛΕΩΝΙΔΟΥ,Επί της ΘΕΡΜΟΠΥΛΩΝ,37.981668258,23.718113392,0
060361,060361,ΠΕΙΡΑΙΩΣ,Επί της ΑΓ.ΑΣΩΜΑΤΩΝ,37.979796894,23.719498335,0
060362,060362,ΑΓ.ΑΣΩΜΑΤΟΙ,Επί της ΑΓ.ΑΣΩΜΑΤΩΝ,37.978276470,23.720654150,0
060363,060363,ΜΥΛΛΕΡΟΥ,Επί της ΜΕΓ.ΑΛΕΞΑΝΔΡΟΥ,37.983753013,23.719278306,0
060364,060364,ΕΘΝΙΚΗ ΓΛΥΠΤΟΘΗΚΗ,Επί της ΛΕΩΦ.ΠΑΝ.ΚΑΝΕΛΛΟΠΟΥΛΟΥ,37.986190628,23.780580129,0
060365,060365,ΕΡΡΙΚΟΣ ΝΤΙΝΑΝ,Επί της ΣΟΦ.ΣΛΗΜΑΝ,37.990269659,23.769179695,0
060366,060366,ΜΗΤΣΑΚΗ,Επί της ΑΓ.ΛΑΥΡΑΣ,38.018283016,23.739676133,0
060367,060367,ΙΔΡΥΜΑ ΜΕΙΖΩΝ.ΕΛΛΗΝΙΣΜΟΥ,Επί της ΠΟΥΛΟΠΟΥΛΟΥ,37.976518981,23.716891995,0
060368,060368,ΠΛ.ΠΑΠΑΔΙΑΜΑΝΤΗ,Επί της ΜΑΡΚΟΡΑ,38.019323877,23.741666186,0
060372,060372,ΙΔΡ.ΜΕΛ.ΜΕΡΚΟΥΡΗ,Επί της ΠΕΡΣΕΦΟΝΗΣ,37.976899230,23.713873190,0
060373,060373,ΕΡΕΧΘΕΙΟΥ,Επί της ΡΟΒΕΡΤΟΥ ΓΚΑΛΛΙ,37.968923863,23.725653439,0
060374,060374,ΑΦΕΤΗΡΙΑ,Επί της ΡΟΒΕΡΤΟΥ ΓΚΑΛΛΙ,37.969882284,23.723110990,0
060375,060375,ΕΡΕΧΘΕΙΟΥ,Επί της ΚΑΒΑΛΛΟΤΙ,37.967894729,23.724940025,0
060377,060377,ΔΗΜΟΦΩΝΤΟΣ,Επί της ΠΟΥΛΟΠΟΥΛΟΥ,37.976705146,23.715604642,0
060378,060378,ΜΥΡΜΙΔΟΝΩΝ,Επί της ΤΡΙΩΝ ΙΕΡΑΡΧΩΝ,37.974952442,23.713869361,0
060379,060379,ΓΕΦΥΡΑ,Επί της ΤΡΙΩΝ ΙΕΡΑΡΧΩΝ,37.972858618,23.712704773,0
060380,060380,ΤΡΕΙΣ ΙΕΡΑΡΧΑΙ,Επί της ΤΡΙΩΝ ΙΕΡΑΡΧΩΝ,37.970782920,23.711585721,0
060381,060381,ΦΑΡΜΑΚΕΙΟ,Επί της ΤΡΙΩΝ ΙΕΡΑΡΧΩΝ,37.969528410,23.710884755,0
060382,060382,ΣΤ.ΗΣΑΠ ΠΕΤΡΑΛΩΝΩΝ,Επί της ΤΡΙΩΝ ΙΕΡΑΡΧΩΝ,37.967894965,23.710025914,0
060383,060383,ΠΑΛΑΙΟ ΤΕΡΜΑ,Επί της ΤΡΙΩΝ ΙΕΡΑΡΧΩΝ,37.966342489,23.709109869,0
060384,060384,ΚΗΦΙΣΟΔΟΤΟΥ,Επί της ΚΗΦΙΣΟΔΟΤΟΥ,37.964700554,23.708467440,0
060385,060385,ΑΦΕΤΗΡΙΑ,Επί της ΠΑΡΑΔΡ.ΚΑΛΛΙΡΡΟΗΣ,37.963683152,23.708892676,0
060386,060386,ΚΟΙΛΗΣ,Επί της ΚΟΙΛΗΣ,37.965272467,23.710127303,0
060387,060387,ΠΑΠΑΦΩΤΗ,Επί της ΔΗΜΟΦΩΝΤΟΣ,37.967979775,23.711528378,0
060388,060388,ΤΡΕΙΣ ΙΕΡΑΡΧΕΣ,Επί της ΔΗΜΟΦΩΝΤΟΣ,37.970606200,23.713032338,0
060389,060389,ΓΥΜΝΑΣΙΟ,Επί της ΔΗΜΟΦΩΝΤΟΣ,37.972573621,23.714106305,0
060390,060390,ΑΣΤΥΝΟΜΙΑ,Επί της ΔΗΜΟΦΩΝΤΟΣ,37.975099658,23.715109856,0
060391,060391,ΒΑΣΙΛΑΚΑΚΗ,Επί της ΝΗΛΕΩΣ,37.974976012,23.716157837,0
060394,060394,ΙΚΑ,Επί της ΚΕΙΡΙΑΔΩΝ,37.975641033,23.711657802,0
060395,060395,ΤΑΧΥΔΡΟΜΕΙΟ,Επί της ΚΕΙΡΙΑΔΩΝ,37.972960964,23.710336170,0
060397,060397,ΓΕΦ.ΠΟΥΛΟΠΟΥΛΟΥ,Επί της ΗΡΑΚΛΕΙΔΩΝ,37.975968695,23.712965917,0
060398,060398,ΣΤ.ΗΣΑΠ ΠΕΤΡΑΛΩΝΩΝ,Επί της ΚΕΙΡΙΑΔΩΝ,37.968547604,23.707882983,0
060399,060399,ΑΘΗΝΑΔΩΡΟΥ,Επί της ΚΕΙΡΙΑΔΩΝ,37.967319855,23.707079532,0
060400,060400,ΓΕΦΥΡΕΣ,Επί της ΚΕΙΡΙΑΔΩΝ,37.965603930,23.705686060,0
060401,060401,1η ΣΤΑΣΗ,Επί της ΤΡΙΑΝΤΑΦΥΛΛΟΠΟΥΛΟΥ,38.000713271,23.711047118,0
060402,060402,ΝΗΛΕΩΣ,Επί της ΝΗΛΕΩΣ,37.974959523,23.716795512,0
060404,060404,ΣΥΝΤΑΓΜΑ,Επί της ΛΕΩΦ.ΒΑΣ.ΑΜΑΛΙΑΣ,37.974506829,23.735265084,0
060405,060405,ΖΑΠΠΕΙΟ,Επί της ΛΕΩΦ.ΒΑΣ.ΟΛΓΑΣ,37.969596003,23.735795047,0
060406,060406,ΖΑΠΠΕΙΟ,Επί της ΑΡΔΗΤΤΟΥ,37.968599379,23.737494973,0
060407,060407,ΛΕΩΦ.ΒΟΥΛΙΑΓΜΕΝΗΣ,Επί της ΚΑΛΛΙΡΡΟΗΣ,37.966594683,23.731798415,0
060408,060408,ΦΙΞ,Επί της ΚΑΛΛΙΡΡΟΗΣ,37.964592727,23.727399969,0
060409,060409,ΚΑΣΟΜΟΥΛΗ,Επί της ΚΟΣΑΜΟΥΛΗ,37.960293491,23.723499887,0
060410,060410,ΜΟΝΑΣΤΗΡΑΚΙ,Επί της ΕΡΜΟΥ,37.976701452,23.725430928,0
060411,060411,ΒΟΡΕΟΥ,Επί της ΑΘΗΝΑΣ,37.977695432,23.726531700,0
060412,060412,ΑΓΟΡΑ,Επί της ΑΘΗΝΑΣ,37.979697355,23.726991124,0
060413,060413,ΔΗΜΑΡΧΕΙΟ,Επί της ΑΘΗΝΑΣ,37.981383801,23.727440353,0
060414,060414,ΝΕΟΣ ΚΟΣΜΟΣ,Επί της ΠΛ.ΚΑΡΑΙΣΚΑΚΗ,37.957796775,23.727299872,0
060415,060415,ΟΜΟΝΟΙΑ-MENANΔΡΟΥ,Επί της ΠΕΙΡΑΙΩΣ,37.983028293,23.725350420,0
060416,060416,ΝΕΟΣ ΚΟΣΜΟΣ,Επί της ΓΟΥΒΕΣΗ,37.957399974,23.727198890,0
060417,060417,ΑΦΕΤΗΡΙΑ,Επί της 3Η ΣΕΠΤΕΜΒΡΙΟΥ,37.987984969,23.729067183,0
060418,060418,ΑΦΕΤΗΡΙΑ,Επί της ΜΑΡΝΗ,37.988905974,23.729804021,0
060419,060419,ΜΠΑΚΝΑΝΑ,Επί της ΜΑΧΗΣ ΑΝΑΛΑΤΟΥ,37.954399510,23.723692721,0
060426,060426,ΗΠΕΙΡΟΥ,Επί της 3ης ΣΕΠΤΕΜΒΡΙΟΥ,37.989797611,23.729527434,0
060427,060427,ΠΛ.ΒΙΚΤΩΡΙΑΣ,Επί της 3ηs ΣΕΠΤΕΜΒΡΙΟΥ,37.992854665,23.730267862,0
060428,060428,ΑΓΓΕΛΟΠΟΥΛΟΥ,Επί της 3ηs ΣΕΠΤΕΜΒΡΙΟΥ,37.995569229,23.731009602,0
060429,060429,ΚΕΦΑΛΛΗΝΙΑΣ,Επί της 3ηs ΣΕΠΤΕΜΒΡΙΟΥ,37.999789514,23.732007876,0
060431,060431,ΚΑΛΛΙΦΡΟΝΑ,Επί της ΔΡΟΣΟΠΟΥΛΟΥ,38.002942959,23.735527374,0
060435,060435,ΓΕΦΥΡΑ ΚΑΒΑΛΑΣ,Επί της ΛΕΩΦ.ΚΗΦΙΣΟΥ,37.995478576,23.693927096,0
060436,060436,ΙΠΠΟΛΥΤΟΥ,Επί της ΤΑΥΓΕΤΟΥ,38.010512721,23.739111258,0
060437,060437,ΣΧΟΛΕΙΑ ΓΚΡΑΒΑΣ,Επί της ΤΑΥΓΕΤΟΥ,38.013216797,23.739215593,0
060438,060438,ΓΑΛΑΤΣΙΟΥ,Επί της ΑΓ.ΛΑΥΡΑΣ,38.015380158,23.739344635,0
060439,060439,ΧΑΤΖΗΔΑΚΗ,Επί της ΛΕΩΦ.ΓΑΛΑΤΣΙΟΥ,38.015635160,23.740539913,0
060440,060440,ΒΟΡΕΙΟΣ ΠΟΛΟΣ,Επί της ΛΕΩΦ.ΓΑΛΑΤΣΙΟΥ,38.015529440,23.741645328,0
060441,060441,ΒΟΡΕΙΟΣ ΠΟΛΟΣ,Επί της ΛΕΩΦ.ΓΑΛΑΤΣΙΟΥ,38.015685602,23.742989060,0
060442,060442,ΧΑΤΖΗΔΑΚΗ,Επί της ΛΕΩΦ.ΓΑΛΑΤΣΙΟΥ,38.016020945,23.739741095,0
060443,060443,ΠΛ.ΠΑΠΑΛΟΥΚΑ,Επί της ΠΛ.ΠΑΠΑΛΟΥΚΑ,38.017259335,23.741388621,0
060444,060444,ΑΣΤΥΝΟΜΙΑ,Επί της ΧΑΛΕΠΑ,38.018633837,23.743468650,0
060445,060445,ΧΑΛΕΠΑ,Επί της ΧΑΛΕΠΑ,38.019999684,23.745731072,0
060447,060447,ΣΥΡΑΚΟΥΣΩΝ,Επί της ΣΥΡΑΚΟΥΣΩΝ,38.025496969,23.749688488,0
060448,060448,ΠΤΟΛΕΜΑΙΩΝ,Επί της ΣΥΡΑΚΟΥΣΩΝ,38.028231018,23.751183214,0
060449,060449,ΠΛΑΤΕΙΑ,Επί της ΣΥΡΑΚΟΥΣΩΝ,38.025550391,23.749380675,0
060450,060450,ΣΧΟΛΕΙΟ,Επί της ΩΡΩΠΟΥ,38.022186695,23.748480674,0
060452,060452,ΧΑΛΕΠΑ,Επί της ΧΑΛΕΠΑ,38.019980722,23.745298208,0
060453,060453,ΑΣΤΥΝΟΜΙΑ,Επί της ΧΑΛΕΠΑ,38.019275156,23.744115802,0
060454,060454,ΠΛ.ΠΑΠΑΛΟΥΚΑ,Επί της ΧΑΛΕΠΑ,38.017972417,23.741875996,0
060455,060455,ΓΑΛΑΤΣΙΟΥ,Επί της ΑΓ.ΛΑΥΡΑΣ,38.015370539,23.739071257,0
060456,060456,ΣΧΟΛΕΙΑ ΓΚΡΑΒΑΣ,Επί της ΤΑΥΓΕΤΟΥ,38.012639274,23.738898671,0
060457,060457,ΙΠΠΟΛΥΤΟΥ,Επί της ΤΑΥΓΕΤΟΥ,38.010548115,23.738814956,0
060470,060470,ΠΟΛΥΤΕΧΝΕΙΟ,Επί της ΠΑΤΗΣΙΩΝ,37.988881104,23.730749321,0
060474,060474,ΑΦΕΤΗΡΙΑ,Επί της ΒΑΣ.ΗΡΑΚΛΕΙΟΥ,37.989571059,23.732933328,0
060475,060475,ΟΤΕ ΠΕΔΙΟΥ ΑΡΕΩΣ,Επί της ΠΑΤΗΣΙΩΝ,37.993994412,23.732074516,0
060476,060476,ΑΓΓΕΛΟΠΟΥΛΟΥ,Επί της ΠΑΤΗΣΙΩΝ,37.997078643,23.732883329,0
060478,060478,ΛΥΣΙΑΤΡΕΙΟ,Επί της ΔΡΟΣΟΠΟΥΛΟΥ,38.006143842,23.736119586,0
060479,060479,ΚΟΛΙΑΤΣΟΥ,Επί της ΔΡΟΣΟΠΟΥΛΟΥ,38.009271521,23.736222288,0
060480,060480,ΑΓ.ΛΟΥΚΑΣ,Επί της ΔΡΟΣΟΠΟΥΛΟΥ,38.013543868,23.736343681,0
060481,060481,ΚΩΣΤΗ ΠΑΛΑΜΑ,Επί της ΓΑΛΑΤΣΙΟΥ,38.015889982,23.737588424,0
060482,060482,ΚΩΣΤΗ ΠΑΛΑΜΑ,Επί της ΛΕΩΦ.ΓΑΛΑΤΣΙΟΥ,38.016122913,23.736961018,0
060484,060484,ΑΓ.ΜΕΤΑΞΑ,Επί της ΑΓΑΜ.ΜΕΤΑΞΑ,38.000445263,23.764682982,0
060485,060485,ΠΑΝΟΡΜΟΥ,Επί της ΠΑΝΟΡΜΟΥ,37.993124850,23.763692772,0
060487,060487,ΑΓ.ΛΟΥΚΑΣ,Επί της ΠΑΤΗΣΙΩΝ,38.013145260,23.735433764,0
060490,060490,ΑΝΩ ΠΑΤΗΣΙΑ,Επί της ΠΑΤΗΣΙΩΝ,38.022357706,23.736038667,0
060491,060491,ΣΤΑΘΜΟΣ ΗΣΑΠ,Επί της ΧΑΛΚΙΔΟΣ,38.023815897,23.735201713,0
060492,060492,ΤΙΤΑΝ,Επί της ΧΑΛΚΙΔΟΣ,38.025144264,23.732758686,0
060493,060493,ΛΕΟΝΤΕΙΟΣ,Επί της ΧΑΛΚΙΔΟΣ,38.024918610,23.732611389,0
060494,060494,ΣΤ.ΗΣΑΠ,Επί της ΧΑΛΚΙΔΟΣ,38.023904329,23.734449425,0
060495,060495,ΑΛΥΣΙΔΑ,Επί της ΠΑΤΗΣΙΩΝ,38.022249042,23.735811192,0
060500,060500,ΕΦΟΡΙΑ,Επί της ΛΕΩΦ.ΗΡΑΚΛΕΙΟΥ,38.020811392,23.737775950,0
060501,060501,ΦΑΡΜΑΚΕΙΟ,Επί της ΛΕΩΦ.ΗΡΑΚΛΕΙΟΥ,38.023295681,23.740376183,0
060502,060502,2η ΔΙΚΑΣΤΗΡΙΩΝ,Επί της ΕΥΕΛΠΙΔΩΝ,37.996276819,23.741086466,0
060503,060503,ΑΓ.ΑΝΤΩΝΙΟΣ,Επί της ΛΕΩΦ.ΗΡΑΚΛΕΙΟΥ,38.025281967,23.741952899,0
060504,060504,ΚΟΛΟΥΜΠΙΑ,Επί της ΛΕΩΦ.ΗΡΑΚΛΕΙΟΥ,38.030657014,23.743517885,0
060505,060505,ΚΟΛΟΥΜΠΙΑ,Επί της ΛΕΩΦ.ΗΡΑΚΛΕΙΟΥ,38.028951418,23.742521136,0
060506,060506,1η ΡΙΖΟΥΠΟΛΕΩΣ,Επί της ΕΡΜΩΝΑΣΣΗΣ,38.028322670,23.743503235,0
060508,060508,3η ΡΙΖΟΥΠΟΛΕΩΣ,Επί της ΕΡΜΩΝΑΣΣΗΣ,38.027464143,23.746594011,0
060509,060509,1η ΠΕΡΙΣΣΟΥ,Επί της ΚΟΜΑΝΩΝ,38.028818233,23.747603435,0
060510,060510,1η ΠΕΡΙΣΣΟΥ,Επί της ΤΑΝΑΙΔΟΣ,38.030222920,23.746994709,0
060511,060511,3η ΡΙΖΟΥΠΟΛΕΩΣ,Επί της ΤΑΝΑΙΔΟΣ,38.028364088,23.745975626,0
060512,060512,2η ΡΙΖΟΥΠΟΛΕΩΣ,Επί της ΕΡΜΩΝΑΣΣΗΣ,38.028163811,23.745053392,0
060513,060513,1η ΡΙΖΟΥΠΟΛΕΩΣ,Επί της ΕΡΜΩΝΑΣΣΗΣ,38.028521074,23.743559514,0
060514,060514,ΑΓ.ΑΝΤΩΝΙΟΣ,Επί της ΛΕΩΦ.ΗΡΑΚΛΕΙΟΥ,38.025867869,23.741985025,0
060515,060515,ΝΟΜΙΚΗ,Επί της ΣΟΛΩΝΟΣ,37.981187585,23.736254518,0
060516,060516,ΦΑΡΜΑΚΕΙΟ,Επί της ΛΕΩΦ.ΗΡΑΚΛΕΙΟΥ,38.023918163,23.740647431,0
060517,060517,ΕΦΟΡΙΑ,Επί της ΛΕΩΦ.ΗΡΑΚΛΕΙΟΥ,38.021650464,23.738171720,0
060521,060521,ΠΛΑΤΕΙΑ ΚΟΛΙΑΤΣΟΥ,Επί της ΠΑΤΗΣΙΩΝ,38.010116056,23.735034562,0
060522,060522,ΚΑΛΟΥΤΑ/ΑΝΝΑ-ΜΑΡΙΑ,Επί της ΠΑΤΗΣΙΩΝ,38.009143039,23.735197540,0
060523,060523,ΚΑΛΛΙΦΡΟΝΑ,Επί της ΠΑΤΗΣΙΩΝ,38.004580970,23.734496346,0
060524,060524,ΠΛΑΤΕΙΑ ΑΜΕΡΙΚΗΣ,Επί της ΠΑΤΗΣΙΩΝ,38.002235981,23.733764443,0
060525,060525,ΚΕΦΑΛΛΗΝΙΑΣ,Επί της ΠΑΤΗΣΙΩΝ,37.999467179,23.732943005,0
060526,060526,ΑΓΓΕΛΟΠΟΥΛΟΥ,Επί της ΠΑΤΗΣΙΩΝ,37.997600399,23.732448639,0
060527,060527,ΟΤΕ ΠΕΔΙΟΥ ΑΡΕΩΣ,Επί της ΠΑΤΗΣΙΩΝ,37.994209758,23.731652344,0
060528,060528,ΠΟΛΥΤΕΧΝΕΙΟ,Επί της ΠΑΤΗΣΙΩΝ,37.989195638,23.730349588,0
060529,060529,ΚΑΛΟΥΤΑ/ΑΝΝΑ-ΜΑΡΙΑ,Επί της ΠΑΤΗΣΙΩΝ,38.008628876,23.735005741,0
060530,060530,ΕΥΕΛΠΙΔΩΝ,Επί της ΕΥΕΛΠΙΔΩΝ,37.996148832,23.740266895,0
060531,060531,ΥΔΡΑΣ,Επί της ΥΔΡΑΣ,37.996214612,23.737419363,0
060532,060532,ΑΦΕΤΗΡΙΑ,Επί της ΧΑΛΚΟΚΟΝΔΥΛΗ,37.986197442,23.727775564,0
060533,060533,ΑΚΑΔΗΜΙΑ(ΜΟΝΟ ΑΠΟΒΙΒΑΣΗ),Επί της ΡΗΓΑ ΦΕΡΑΙΟΥ,37.980766219,23.733249909,0
060534,060534,ΠΑΛ.ΤΕΡΜΑ,Επί της ΒΕΛΒΕΝΔΟΥΣ,38.003136782,23.745766529,0
060539,060539,ΓΥΜΝΑΣΙΟ,Επί της ΒΕΛΒΕΝΔΟΥΣ,38.004187994,23.748428261,0
060540,060540,ΑΦΕΤΗΡΙΑ,Επί της ΚΑΥΚΑΣΟΥ,38.006371780,23.749685176,0
060541,060541,ΓΥΜΝΑΣΙΟ,Επί της ΒΕΛΒΕΝΔΟΥΣ,38.004268182,23.747995150,0
060542,060542,ΠΑΛ.ΤΕΡΜΑ,Επί της ΚΕΡΚΥΡΑΣ,38.003254784,23.746153392,0
060543,060543,ΦΙΛΟΤΙΜΟΥ,Επί της ΚΕΡΚΥΡΑΣ,38.001755287,23.744598123,0
060544,060544,ΣΚΥΡΟΥ,Επί της ΚΕΡΚΥΡΑΣ,37.999460527,23.742077568,0
060545,060545,ΖΑΚΥΝΘΟΥ,Επί της ΚΕΡΚΥΡΑΣ,37.997906472,23.740329033,0
060546,060546,ΛΕΥΚΑΔΟΣ,Επί της ΛΕΥΚΑΔΟΣ,37.996064640,23.738877712,0
060547,060547,ΣΧΟΛΗ ΕΥΕΛΠΙΔΩΝ,Επί της ΜΟΥΣΤΟΞΥΔΗ,37.993761804,23.740890308,0
060550,060550,ΠΑΝΕΛΛΗΝΙΟΣ,Επί της ΜΑΥΡΟΜΜΑΤΑΙΩΝ,37.994186088,23.733132985,0
060551,060551,ΕΠΤΑΝΗΣΟΥ,Επί της ΚΥΨΕΛΗΣ,37.996155736,23.735278406,0
060552,060552,ΙΘΑΚΗΣ,Επί της ΚΥΨΕΛΗΣ,37.997647743,23.737459812,0
060553,060553,ΖΑΚΥΝΘΟΥ,Επί της ΚΥΨΕΛΗΣ,37.999444655,23.738968236,0
060554,060554,ΣΚΥΡΟΥ,Επί της ΚΥΨΕΛΗΣ,38.001016630,23.740659765,0
060555,060555,ΠΛ.ΚΥΨΕΛΗΣ (ΤΕΡΜΑ 036),Επί της ΠΛ.ΚΥΨΕΛΗΣ,38.002308436,23.742010643,0
060556,060556,ΦΙΛΟΤΙΜΟΥ,Επί της ΦΙΛΟΤΙΜΟΥ,38.002023887,23.743777104,0
060557,060557,ΑΦΕΤΗΡΙΑ(Ν.ΚΥΨΕΛΗ),Επί της ΛΑΖΑΡΑΔΩΝ,38.001496877,23.745965821,0
060558,060558,ΚΟΛΟΣΣΑΙΟΝ,Επί της ΒΕΛΒΕΝΔΟΥΣ,38.002980132,23.744183826,0
060560,060560,ΣΚΥΡΟΥ,Επί της ΚΥΨΕΛΗΣ,38.000699599,23.739943318,0
060561,060561,ΖΑΚΥΝΘΟΥ,Επί της ΚΥΨΕΛΗΣ,37.999317439,23.738501710,0
060562,060562,ΙΘΑΚΗΣ,Επί της ΚΥΨΕΛΗΣ,37.997836554,23.737254128,0
060563,060563,ΕΠΤΑΝΗΣΟΥ,Επί της ΚΥΨΕΛΗΣ,37.996317504,23.735072818,0
060565,060565,ΟΤΕ,Επί της ΠΑΤΗΣΙΩΝ,37.993831014,23.731562613,0
060572,060572,ΒΟΥΡΗ,Επί της ΕΥΣΤΑΘ.ΛΑΜΨΑ,37.996588612,23.765105317,0
060573,060573,ΑΦΕΤΗΡΙΑ,Επί της ΤΖΩΡΤΖ,37.985755154,23.731409836,0
060580,060580,ΑΦΕΤΗΡΙΑ,Επί της ΑΚΑΔΗΜΙΑΣ,37.980292863,23.735164594,0
060587,060587,ΣΥΝΤΑΓΜΑ,Επί της ΛΕΩΦ.ΒΑΣ.ΣΟΦΙΑΣ,37.975774662,23.737959021,0
060588,060588,ΚΗΠΟΣ,Επί της ΛΕΩΦ.ΒΑΣ.ΣΟΦΙΑΣ,37.975394320,23.741216764,0
060589,060589,ΡΗΓΙΛΛΗΣ,Επί της ΛΕΩΦ.ΒΑΣ.ΣΟΦΙΑΣ,37.975363902,23.743790101,0
060590,060590,ΝΟΣΟΚΟΜΕΙΟ ΕΥΑΓΓΕΛΙΣΜΟΣ,Επί της ΛΕΩΦ.ΒΑΣ.ΣΟΦΙΑΣ,37.976300783,23.747749215,0
060591,060591,ΙΛΙΣΙΑ,Επί της ΛΕΩΦ.ΒΑΣ.ΣΟΦΙΑΣ,37.978492471,23.752728984,0
060593,060593,ΙΠΠΟΚΡΑΤΕΙΟ,Επί της ΛΕΩΦ.ΒΑΣ.ΣΟΦΙΑΣ,37.983516144,23.758758752,0
060594,060594,ΑΘΗΝΑΙΟΝ,Επί της ΛΕΩΦ.ΒΑΣ.ΣΟΦΙΑΣ,37.986324444,23.761357334,0
060596,060596,ΑΜΠΕΛΟΚΗΠΟΙ,Επί της ΦΕΙΔΙΠΠΙΔΟΥ,37.986371422,23.762302360,0
060598,060598,ΑΜΠΕΛΟΚΗΠΟΙ,Επί της ΛΕΩΦ.ΚΗΦΙΣΙΑΣ,37.987552696,23.762594633,0
060601,060601,ΖΕΡΒΑ,Επί της ΛΕΩΦ.ΚΗΦΙΣΙΑΣ,37.989377332,23.764604456,0
060602,060602,ΑΓΙΑΣ ΤΡΙΑΔΟΣ,Επί της ΣΟΦ.ΣΛΗΜΑΝ,37.991219710,23.766489049,0
060603,060603,ΕΡΥΘΡΟΣ ΣΤΑΥΡΟΣ,Επί της ΛΕΩΦ.ΚΗΦΙΣΙΑΣ,37.992418819,23.766690243,0
060604,060604,ΓΗΡΟΚΟΜΕΙΟ,Επί της ΛΕΩΦ.ΚΗΦΙΣΙΑΣ,37.995693816,23.768376849,0
060605,060605,ΚΑΤΕΧΑΚΗ,Επί της ΛΕΩΦ.ΚΗΦΙΣΙΑΣ,37.999322241,23.771064793,0
060607,060607,ΓΗΡΟΚΟΜΕΙΟ,Επί της ΛΕΩΦ.ΚΗΦΙΣΙΑΣ,37.995773965,23.767886864,0
060608,060608,ΕΡΥΘΡΟΣ ΣΤΑΥΡΟΣ,Επί της ΛΕΩΦ.ΚΗΦΙΣΙΑΣ,37.992499210,23.766325552,0
060610,060610,ΖΕΡΒΑ,Επί της ΛΕΩΦ.ΚΗΦΙΣΙΑΣ,37.989746378,23.764364124,0
060611,060611,ΑΜΠΕΛΟΚΗΠΟΙ,Επί της ΛΕΩΦ.ΚΗΦΙΣΙΑΣ,37.987389062,23.761900503,0
060612,060612,ΑΘΗΝΑ,Επί της ΣΙΔΗΡΟΔΡΟΜΩΝ,37.992469769,23.719837300,0
060613,060613,ΑΦΕΤΗΡΙΑ,Επί της ΠΑΝΟΡΜΟΥ,37.989283983,23.758569044,0
060614,060614,ΝΟΣΟΚΟΜΕΙΟ ΑΓ.ΣΑΒΒΑΣ,Επί της ΛΕΩΦ.ΑΛΕΞΑΝΔΡΑΣ,37.987888951,23.755157241,0
060615,060615,ΣΤ.ΠΑΝΟΡΜΟΥ,Επί της ΛΑΡΙΣΗΣ,37.992609953,23.763113602,0
060616,060616,ΙΚΑ,Επί της ΛΕΩΦ.ΑΛΕΞΑΝΔΡΑΣ,37.988646482,23.751077809,0
060617,060617,ΙΠΠΟΚΡΑΤΟΥΣ,Επί της ΛΕΩΦ.ΑΛΕΞΑΝΔΡΑΣ,37.989323710,23.747442706,0
060618,060618,ΠΑΝΑΘΗΝΑΙΑ,Επί της ΛΕΩΦ.ΑΛΕΞΑΝΔΡΑΣ,37.989893440,23.744160945,0
060619,060619,ΣΟΝΙΑ,Επί της ΛΕΩΦ.ΑΛΕΞΑΝΔΡΑΣ,37.990338052,23.741403435,0
060620,060620,ΠΕΔΙΟΝ ΑΡΕΩΣ,Επί της ΛΕΩΦ.ΑΛΕΞΑΝΔΡΑΣ,37.991627443,23.733575017,0
060621,060621,ΙΟΥΛΙΑΝΟΥ,Επί της ΙΟΥΛΙΑΝΟΥ,37.991601838,23.730249672,0
060622,060622,ΑΧΑΡΝΩΝ,Επί της ΙΟΥΛΙΑΝΟΥ,37.992027966,23.727435141,0
060623,060623,ΛΙΟΣΙΩΝ,Επί της ΙΟΥΛΙΑΝΟΥ,37.992245132,23.723938043,0
060624,060624,ΓΥΣ,Επί της ΕΥΕΛΠΙΔΩΝ,37.994932787,23.736524202,0
060625,060625,ΔΙΚΑΣΤΗΡΙΑ,Επί της ΕΥΕΛΠΙΔΩΝ,37.996116541,23.741975386,0
060626,060626,ΜΠΑΛΑ,Επί της ΕΥΕΛΠΙΔΩΝ,37.996267081,23.744879106,0
060627,060627,ΚΡΥΣΤΑΛ,Επί της ΠΡΙΓΚΙΠΟΝΝΗΣΩΝ,37.996307389,23.746849301,0
060628,060628,ΠΑΛΑΙΟ ΤΕΡΜΑ,Επί της ΚΩΝ.ΤΣΑΛΔΑΡΗ,37.996034087,23.749697533,0
060629,060629,1η ΕΛ.ΒΕΝΙΖΕΛΟΥ,Επί της ΚΩΝ.ΤΣΑΛΔΑΡΗ,37.997297593,23.750501884,0
060630,060630,2η ΕΛ.ΒΕΝΙΖΕΛΟΥ,Επί της ΚΩΝ.ΤΣΑΛΔΑΡΗ,37.998911556,23.750815326,0
060631,060631,3η ΕΛ.ΒΕΝΙΖΕΛΟΥ,Επί της ΒΡΙΛΗΣΣΟΥ,37.999715884,23.751849071,0
060632,060632,4η ΕΛ.ΒΕΝΙΖΕΛΟΥ,Επί της ΒΡΙΛΗΣΣΟΥ,37.999463731,23.756257736,0
060633,060633,5η ΕΛ.ΒΕΝΙΖΕΛΟΥ,Επί της ΜΗΤΡΟΠΕΤΡΟΒΑ,37.999540648,23.758592373,0
060634,060634,ΕΛ.ΒΕΝΙΖΕΛΟΥ,Επί της ΜΗΤΡΟΠΕΤΡΟΒΑ,37.997789192,23.757151655,0
060635,060635,5η ΕΛ.ΒΕΝΙΖΕΛΟΥ,Επί της ΜΗΤΡΟΠΕΤΡΟΒΑ,37.999036400,23.758821819,0
060636,060636,4η ΕΛ.ΒΕΝΙΖΕΛΟΥ,Επί της ΒΡΙΛΗΣΣΟΥ,37.999751903,23.756142885,0
060637,060637,3η ΕΛ.ΒΕΝΙΖΕΛΟΥ,Επί της ΒΡΙΛΗΣΣΟΥ,38.000336273,23.751140811,0
060638,060638,2α ΕΛ.ΒΕΝΙΖΕΛΟΥ,Επί της ΚΩΝ.ΤΣΑΛΔΑΡΗ,37.999253075,23.750358584,0
060639,060639,1η ΕΛ.ΒΕΝΙΖΕΛΟΥ,Επί της ΚΩΝ.ΤΣΑΛΔΑΡΗ,37.997729554,23.750192906,0
060640,060640,ΠΑΛΑΙΟ ΤΕΡΜΑ,Επί της ΚΩΝ.ΤΣΑΛΔΑΡΗ,37.995960820,23.749151102,0
060641,060641,ΚΡΥΣΤΑΛ,Επί της ΠΡΙΓΚΙΠΟΝΝΗΣΩΝ,37.996435012,23.747520827,0
060642,060642,ΔΙΚΑΣΤΗΡΙΑ,Επί της ΕΥΕΛΠΙΔΩΝ,37.996461768,23.743226993,0
060643,060643,Γ.Υ.Σ,Επί της ΕΥΕΛΠΙΔΩΝ,37.995521035,23.737604061,0
060644,060644,ΑΓΓΕΛΟΠΟΥΛΟΥ,Επί της ΕΥΕΛΠΙΔΩΝ,37.995316984,23.735030861,0
060647,060647,3η ΨΥΧΙΚΟΥ,Επί της ΤΡΙΦΥΛΛΙΑΣ,37.994131252,23.762186211,0
060648,060648,4η ΨΥΧΙΚΟΥ,Επί της ΠΛ.ΑΝΑΠΗΡΩΝ,37.997017732,23.763361381,0
060649,060649,5η ΨΥΧΙΚΟΥ,Επί της ΦΛΩΡΟΥ,37.999135644,23.763309018,0
060650,060650,ΕΦΕΤΕΙΟ,Επί της ΣΩΚΡΑΤΟΥΣ,37.984698972,23.726767620,0
060651,060651,7η ΨΥΧΙΚΟΥ,Επί της ΦΡΙΖΗ,38.000591877,23.765889840,0
060652,060652,7η ΨΥΧΙΚΟΥ,Επί της ΠΕΡΡΙΚΟΥ,38.001202427,23.764726122,0
060653,060653,6η ΨΥΧΙΚΟΥ,Επί της ΜΠΑΚΟΥ,38.001430614,23.761672871,0
060654,060654,5η ΨΥΧΙΚΟΥ,Επί της Ν.ΦΛΩΡΟΥ,37.999638178,23.762225378,0
060655,060655,4η ΨΥΧΙΚΟΥ,Επί της ΤΡΙΦΥΛΛΙΑΣ,37.997432275,23.763337271,0
060656,060656,3η ΨΥΧΙΚΟΥ,Επί της ΤΡΙΦΥΛΛΙΑΣ,37.995798848,23.762294718,0
060658,060658,ΣΟΛΩΝΟΣ,Επί της ΑΣΚΛΗΠΙΟΥ,37.981852075,23.735158990,0
060659,060659,ΔΙΔΟΤΟΥ,Επί της ΑΣΚΛΗΠΙΟΥ,37.982693818,23.736738773,0
060660,060660,ΑΓ.ΝΙΚΟΛΑΟΥ,Επί της ΑΣΚΛΗΠΙΟΥ,37.983599312,23.738625821,0
060661,060661,ΚΑΛΛΙΔΡΟΜΙΟΥ,Επί της ΑΣΚΛΗΠΙΟΥ,37.984839628,23.741138046,0
060662,060662,ΤΣΙΜΙΣΚΗ,Επί της ΑΣΚΛΗΠΙΟΥ,37.986070730,23.743582062,0
060663,060663,ΛΑΣΚΑΡΕΩΣ,Επί της ΑΣΚΛΗΠΙΟΥ,37.986586614,23.744570997,0
060664,060664,ΔΙΓΕΝΗ ΑΚΡΙΤΑ,Επί της ΑΣΚΛΗΠΙΟΥ,37.987374006,23.746082849,0
060665,060665,ΦΑΝΑΡΙΩΤΩΝ,Επί της ΑΣΚΛΗΠΙΟΥ,37.987926116,23.747162799,0
060666,060666,ΛΑΣΚΑΡΕΩΣ,Επί της ΙΠΠΟΚΡΑΤΟΥΣ,37.986954454,23.743795354,0

